{
"type": "FeatureCollection",
"name": "World_Cities",
"crs": { "type": "name", "properties": { "name": "urn:ogc:def:crs:OGC:1.3:CRS84" } },
"features": [
{ "type": "Feature", "properties": { "FID": 1, "OBJECTID": 1, "CITY_NAME": "Cuiaba", "GMI_ADMIN": "BRA-MGR", "ADMIN_NAME": "Mato Grosso", "FIPS_CNTRY": "BR", "CNTRY_NAME": "Brazil", "STATUS": "Provincial capital", "POP": 540814, "POP_RANK": 3, "POP_CLASS": "500,000 to 999,999", "PORT_ID": 0, "LABEL_FLAG": 0, "POP_SOURCE": "UN_Data_2010_2020" }, "geometry": { "type": "Point", "coordinates": [ -56.093003675272698, -15.615000071153499 ] } },
{ "type": "Feature", "properties": { "FID": 2, "OBJECTID": 2, "CITY_NAME": "Brasilia", "GMI_ADMIN": "BRA-DFD", "ADMIN_NAME": "Distrito Federal", "FIPS_CNTRY": "BR", "CNTRY_NAME": "Brazil", "STATUS": "National and provincial capital", "POP": 2481272, "POP_RANK": 2, "POP_CLASS": "1,000,000 to 4,999,999", "PORT_ID": 0, "LABEL_FLAG": 0, "POP_SOURCE": "UN_Data_2010_2020" }, "geometry": { "type": "Point", "coordinates": [ -47.897747657359403, -15.7921109430588 ] } },
{ "type": "Feature", "properties": { "FID": 3, "OBJECTID": 3, "CITY_NAME": "Goiania", "GMI_ADMIN": "BRA-GOI", "ADMIN_NAME": "Goias", "FIPS_CNTRY": "BR", "CNTRY_NAME": "Brazil", "STATUS": "Provincial capital", "POP": 1297154, "POP_RANK": 2, "POP_CLASS": "1,000,000 to 4,999,999", "PORT_ID": 0, "LABEL_FLAG": 0, "POP_SOURCE": "UN_Data_2010_2020" }, "geometry": { "type": "Point", "coordinates": [ -49.255001603160501, -16.727003924564801 ] } },
{ "type": "Feature", "properties": { "FID": 4, "OBJECTID": 4, "CITY_NAME": "Campo Grande", "GMI_ADMIN": "BRA-MGD", "ADMIN_NAME": "Mato Grosso do Sul", "FIPS_CNTRY": "BR", "CNTRY_NAME": "Brazil", "STATUS": "Provincial capital", "POP": 776242, "POP_RANK": 3, "POP_CLASS": "500,000 to 999,999", "PORT_ID": 0, "LABEL_FLAG": 0, "POP_SOURCE": "UN_Data_2010_2020" }, "geometry": { "type": "Point", "coordinates": [ -54.6159956592778, -20.4509970534418 ] } },
{ "type": "Feature", "properties": { "FID": 5, "OBJECTID": 5, "CITY_NAME": "Pedro Juan Caballero", "GMI_ADMIN": "PRY-AMM", "ADMIN_NAME": "Amambay", "FIPS_CNTRY": "PA", "CNTRY_NAME": "Paraguay", "STATUS": "Provincial capital", "POP": 0, "POP_RANK": 0, "POP_CLASS": " ", "PORT_ID": 0, "LABEL_FLAG": 0, "POP_SOURCE": " " }, "geometry": { "type": "Point", "coordinates": [ -55.747997716434597, -22.533003066947298 ] } },
{ "type": "Feature", "properties": { "FID": 6, "OBJECTID": 6, "CITY_NAME": "Salto del Guaira", "GMI_ADMIN": "PRY-CNN", "ADMIN_NAME": "Canindeyu", "FIPS_CNTRY": "PA", "CNTRY_NAME": "Paraguay", "STATUS": "Provincial capital", "POP": 0, "POP_RANK": 0, "POP_CLASS": " ", "PORT_ID": 0, "LABEL_FLAG": 0, "POP_SOURCE": " " }, "geometry": { "type": "Point", "coordinates": [ -54.283301684673198, -24.049998057864801 ] } },
{ "type": "Feature", "properties": { "FID": 7, "OBJECTID": 7, "CITY_NAME": "Puerto Presidente Stroessner", "GMI_ADMIN": "PRY-APA", "ADMIN_NAME": "Alto Parana", "FIPS_CNTRY": "PA", "CNTRY_NAME": "Paraguay", "STATUS": "Provincial capital", "POP": 0, "POP_RANK": 0, "POP_CLASS": " ", "PORT_ID": 0, "LABEL_FLAG": 0, "POP_SOURCE": " " }, "geometry": { "type": "Point", "coordinates": [ -54.622997603859602, -25.526996972258399 ] } },
{ "type": "Feature", "properties": { "FID": 8, "OBJECTID": 8, "CITY_NAME": "Encarnacion", "GMI_ADMIN": "PRY-ITA", "ADMIN_NAME": "Itapua", "FIPS_CNTRY": "PA", "CNTRY_NAME": "Paraguay", "STATUS": "Provincial capital", "POP": 0, "POP_RANK": 0, "POP_CLASS": " ", "PORT_ID": 0, "LABEL_FLAG": 0, "POP_SOURCE": " " }, "geometry": { "type": "Point", "coordinates": [ -55.851002689044797, -27.377001018667102 ] } },
{ "type": "Feature", "properties": { "FID": 9, "OBJECTID": 9, "CITY_NAME": "Posadas", "GMI_ADMIN": "ARG-MSN", "ADMIN_NAME": "Misiones", "FIPS_CNTRY": "AR", "CNTRY_NAME": "Argentina", "STATUS": "Provincial capital", "POP": 371896, "POP_RANK": 4, "POP_CLASS": "250,000 to 499,999", "PORT_ID": 0, "LABEL_FLAG": 0, "POP_SOURCE": "UN_Data_2010_2020" }, "geometry": { "type": "Point", "coordinates": [ -55.906001679582097, -27.397998081778798 ] } },
{ "type": "Feature", "properties": { "FID": 10, "OBJECTID": 10, "CITY_NAME": "Puerto Maldonado", "GMI_ADMIN": "PER-MDD", "ADMIN_NAME": "Madre de Dios", "FIPS_CNTRY": "PE", "CNTRY_NAME": "Peru", "STATUS": "Provincial capital", "POP": 0, "POP_RANK": 0, "POP_CLASS": " ", "PORT_ID": 0, "LABEL_FLAG": 0, "POP_SOURCE": " " }, "geometry": { "type": "Point", "coordinates": [ -69.191999562595001, -12.6029970756788 ] } },
{ "type": "Feature", "properties": { "FID": 11, "OBJECTID": 11, "CITY_NAME": "Cuzco", "GMI_ADMIN": "PER-CUS", "ADMIN_NAME": "Cusco", "FIPS_CNTRY": "PE", "CNTRY_NAME": "Peru", "STATUS": "Provincial capital", "POP": 428450, "POP_RANK": 4, "POP_CLASS": "250,000 to 499,999", "PORT_ID": 0, "LABEL_FLAG": 0, "POP_SOURCE": "UN_Data_2010_2020" }, "geometry": { "type": "Point", "coordinates": [ -71.987003670470003, -13.5260010491837 ] } },
{ "type": "Feature", "properties": { "FID": 12, "OBJECTID": 12, "CITY_NAME": "Abancay", "GMI_ADMIN": "PER-APR", "ADMIN_NAME": "Apurimac", "FIPS_CNTRY": "PE", "CNTRY_NAME": "Peru", "STATUS": "Provincial capital", "POP": 0, "POP_RANK": 0, "POP_CLASS": " ", "PORT_ID": 0, "LABEL_FLAG": 0, "POP_SOURCE": " " }, "geometry": { "type": "Point", "coordinates": [ -72.883997584379699, -13.6420019499903 ] } },
{ "type": "Feature", "properties": { "FID": 13, "OBJECTID": 13, "CITY_NAME": "Puno", "GMI_ADMIN": "PER-PUN", "ADMIN_NAME": "Puno", "FIPS_CNTRY": "PE", "CNTRY_NAME": "Peru", "STATUS": "Provincial capital", "POP": 128637, "POP_RANK": 5, "POP_CLASS": "100,000 to 249,999", "PORT_ID": 0, "LABEL_FLAG": 1, "POP_SOURCE": "UN_Data_2010_2020" }, "geometry": { "type": "Point", "coordinates": [ -70.034003587568606, -15.845003988550999 ] } },
{ "type": "Feature", "properties": { "FID": 14, "OBJECTID": 14, "CITY_NAME": "Arequipa", "GMI_ADMIN": "PER-ARQ", "ADMIN_NAME": "Arequipa", "FIPS_CNTRY": "PE", "CNTRY_NAME": "Peru", "STATUS": "Provincial capital", "POP": 1080635, "POP_RANK": 2, "POP_CLASS": "1,000,000 to 4,999,999", "PORT_ID": 0, "LABEL_FLAG": 1, "POP_SOURCE": "UN_Data_2010_2020" }, "geometry": { "type": "Point", "coordinates": [ -71.522999570792507, -16.3980000700735 ] } },
{ "type": "Feature", "properties": { "FID": 15, "OBJECTID": 15, "CITY_NAME": "La Paz", "GMI_ADMIN": "BOL-LPA", "ADMIN_NAME": "La Paz", "FIPS_CNTRY": "BL", "CNTRY_NAME": "Bolivia", "STATUS": "National and provincial capital", "POP": 2143000, "POP_RANK": 2, "POP_CLASS": "1,000,000 to 4,999,999", "PORT_ID": 0, "LABEL_FLAG": 1, "POP_SOURCE": "UN_Habitat_2020" }, "geometry": { "type": "Point", "coordinates": [ -68.146244609830603, -16.499006992984398 ] } },
{ "type": "Feature", "properties": { "FID": 16, "OBJECTID": 16, "CITY_NAME": "Mata-Utu", "GMI_ADMIN": "WLF", "ADMIN_NAME": "Wallis & Futuna", "FIPS_CNTRY": "WF", "CNTRY_NAME": "Wallis & Futuna", "STATUS": "National and provincial capital", "POP": 0, "POP_RANK": 0, "POP_CLASS": " ", "PORT_ID": 55650, "LABEL_FLAG": 0, "POP_SOURCE": " " }, "geometry": { "type": "Point", "coordinates": [ -176.151563636363989, -13.273299062143201 ] } },
{ "type": "Feature", "properties": { "FID": 17, "OBJECTID": 17, "CITY_NAME": "Apia", "GMI_ADMIN": "WSM", "ADMIN_NAME": "Samoa", "FIPS_CNTRY": "WS", "CNTRY_NAME": "Samoa", "STATUS": "National capital", "POP": 37391, "POP_RANK": 7, "POP_CLASS": "Less than 50,000", "PORT_ID": 55670, "LABEL_FLAG": 0, "POP_SOURCE": "UN_Data_2010_2020" }, "geometry": { "type": "Point", "coordinates": [ -171.739493590236009, -13.8370229528312 ] } },
{ "type": "Feature", "properties": { "FID": 18, "OBJECTID": 18, "CITY_NAME": "Pago Pago", "GMI_ADMIN": "ASM", "ADMIN_NAME": "American Samoa", "FIPS_CNTRY": "AQ", "CNTRY_NAME": "American Samoa", "STATUS": "National and provincial capital", "POP": 3656, "POP_RANK": 7, "POP_CLASS": "Less than 50,000", "PORT_ID": 55680, "LABEL_FLAG": 0, "POP_SOURCE": "UN_Data_2010_2020" }, "geometry": { "type": "Point", "coordinates": [ -170.697860669935011, -14.2683749752899 ] } },
{ "type": "Feature", "properties": { "FID": 19, "OBJECTID": 19, "CITY_NAME": "Papeete", "GMI_ADMIN": "PYF", "ADMIN_NAME": "French Polynesia", "FIPS_CNTRY": "FP", "CNTRY_NAME": "French Polynesia", "STATUS": "National and provincial capital", "POP": 25763, "POP_RANK": 7, "POP_CLASS": "Less than 50,000", "PORT_ID": 55840, "LABEL_FLAG": 0, "POP_SOURCE": "UN_Data_2010_2020" }, "geometry": { "type": "Point", "coordinates": [ -149.570009699675012, -17.534996920511599 ] } },
{ "type": "Feature", "properties": { "FID": 20, "OBJECTID": 20, "CITY_NAME": "Alofi", "GMI_ADMIN": "NIU", "ADMIN_NAME": "Niue", "FIPS_CNTRY": "NE", "CNTRY_NAME": "Niue", "STATUS": "National and provincial capital", "POP": 639, "POP_RANK": 7, "POP_CLASS": "Less than 50,000", "PORT_ID": 55695, "LABEL_FLAG": 0, "POP_SOURCE": "UN_Data_2010_2020" }, "geometry": { "type": "Point", "coordinates": [ -169.916669572892005, -19.0166669421493 ] } },
{ "type": "Feature", "properties": { "FID": 21, "OBJECTID": 21, "CITY_NAME": "Nuku' alofa", "GMI_ADMIN": "TON", "ADMIN_NAME": "Tonga", "FIPS_CNTRY": "TN", "CNTRY_NAME": "Tonga", "STATUS": "National capital", "POP": 35184, "POP_RANK": 7, "POP_CLASS": "Less than 50,000", "PORT_ID": 55590, "LABEL_FLAG": 0, "POP_SOURCE": "UN_Data_2010_2020" }, "geometry": { "type": "Point", "coordinates": [ -175.245650649682005, -21.130902056641101 ] } },
{ "type": "Feature", "properties": { "FID": 22, "OBJECTID": 22, "CITY_NAME": "Avarua", "GMI_ADMIN": "COK", "ADMIN_NAME": "Cook Is.", "FIPS_CNTRY": "CW", "CNTRY_NAME": "Cook Is.", "STATUS": "National and provincial capital", "POP": 0, "POP_RANK": 0, "POP_CLASS": " ", "PORT_ID": 0, "LABEL_FLAG": 0, "POP_SOURCE": " " }, "geometry": { "type": "Point", "coordinates": [ -159.766694593311001, -21.233304006797699 ] } },
{ "type": "Feature", "properties": { "FID": 23, "OBJECTID": 23, "CITY_NAME": "Adamstown", "GMI_ADMIN": "PCN", "ADMIN_NAME": "Pitcairn Is.", "FIPS_CNTRY": "PC", "CNTRY_NAME": "Pitcairn Is.", "STATUS": "National and provincial capital", "POP": 49, "POP_RANK": 7, "POP_CLASS": "Less than 50,000", "PORT_ID": 0, "LABEL_FLAG": 0, "POP_SOURCE": "UN_Data_2010_2020" }, "geometry": { "type": "Point", "coordinates": [ -130.103000556447, -25.065999048731399 ] } },
{ "type": "Feature", "properties": { "FID": 24, "OBJECTID": 24, "CITY_NAME": "Puerto Aisen", "GMI_ADMIN": "CHL-ADG", "ADMIN_NAME": "Aisen del General Carlos Ibanez del Campo", "FIPS_CNTRY": "CI", "CNTRY_NAME": "Chile", "STATUS": "Provincial capital", "POP": 0, "POP_RANK": 0, "POP_CLASS": " ", "PORT_ID": 0, "LABEL_FLAG": 0, "POP_SOURCE": " " }, "geometry": { "type": "Point", "coordinates": [ -72.701999649055196, -45.402002932691502 ] } },
{ "type": "Feature", "properties": { "FID": 25, "OBJECTID": 25, "CITY_NAME": "Comodoro Rivadavia", "GMI_ADMIN": "ARG-CHB", "ADMIN_NAME": "Chubut", "FIPS_CNTRY": "AR", "CNTRY_NAME": "Argentina", "STATUS": "Other", "POP": 236437, "POP_RANK": 5, "POP_CLASS": "100,000 to 249,999", "PORT_ID": 13920, "LABEL_FLAG": 0, "POP_SOURCE": "UN_Data_2010_2020" }, "geometry": { "type": "Point", "coordinates": [ -67.499999644817393, -45.829997953642597 ] } },
{ "type": "Feature", "properties": { "FID": 26, "OBJECTID": 26, "CITY_NAME": "Rio Gallegos", "GMI_ADMIN": "ARG-SCR", "ADMIN_NAME": "Santa Cruz", "FIPS_CNTRY": "AR", "CNTRY_NAME": "Argentina", "STATUS": "Provincial capital", "POP": 122334, "POP_RANK": 5, "POP_CLASS": "100,000 to 249,999", "PORT_ID": 13960, "LABEL_FLAG": 0, "POP_SOURCE": "UN_Data_2010_2020" }, "geometry": { "type": "Point", "coordinates": [ -69.228998564569693, -51.624999052044501 ] } },
{ "type": "Feature", "properties": { "FID": 27, "OBJECTID": 27, "CITY_NAME": "Stanley", "GMI_ADMIN": "FLK", "ADMIN_NAME": "Falkland Islands", "FIPS_CNTRY": "FK", "CNTRY_NAME": "Falkland Is.", "STATUS": "National and provincial capital", "POP": 2108, "POP_RANK": 7, "POP_CLASS": "Less than 50,000", "PORT_ID": 14000, "LABEL_FLAG": 0, "POP_SOURCE": "UN_Data_2010_2020" }, "geometry": { "type": "Point", "coordinates": [ -57.849002577868802, -51.701004041810897 ] } },
{ "type": "Feature", "properties": { "FID": 28, "OBJECTID": 28, "CITY_NAME": "Punta Arenas", "GMI_ADMIN": "CHL-MYA", "ADMIN_NAME": "Magallanes y de la Antartica Chilena", "FIPS_CNTRY": "CI", "CNTRY_NAME": "Chile", "STATUS": "Other", "POP": 141984, "POP_RANK": 5, "POP_CLASS": "100,000 to 249,999", "PORT_ID": 14100, "LABEL_FLAG": 0, "POP_SOURCE": "UN_Data_2010_2020" }, "geometry": { "type": "Point", "coordinates": [ -70.934651711637599, -53.166168061359897 ] } },
{ "type": "Feature", "properties": { "FID": 29, "OBJECTID": 29, "CITY_NAME": "Ushuaia", "GMI_ADMIN": "ARG-TDF", "ADMIN_NAME": "Tierra del Fuego", "FIPS_CNTRY": "AR", "CNTRY_NAME": "Argentina", "STATUS": "Provincial capital", "POP": 164883, "POP_RANK": 5, "POP_CLASS": "100,000 to 249,999", "PORT_ID": 13980, "LABEL_FLAG": 0, "POP_SOURCE": "UN_Data_2010_2020" }, "geometry": { "type": "Point", "coordinates": [ -68.298002557750806, -54.792 ] } },
{ "type": "Feature", "properties": { "FID": 30, "OBJECTID": 30, "CITY_NAME": "San Fernando", "GMI_ADMIN": "CHL-LGB", "ADMIN_NAME": "Libertador General Bernardo O'Higgins", "FIPS_CNTRY": "CI", "CNTRY_NAME": "Chile", "STATUS": "Provincial capital", "POP": 0, "POP_RANK": 0, "POP_CLASS": " ", "PORT_ID": 0, "LABEL_FLAG": 0, "POP_SOURCE": " " }, "geometry": { "type": "Point", "coordinates": [ -70.984997632649495, -34.587998955709601 ] } },
{ "type": "Feature", "properties": { "FID": 31, "OBJECTID": 31, "CITY_NAME": "Talca", "GMI_ADMIN": "CHL-MAU", "ADMIN_NAME": "Maule", "FIPS_CNTRY": "CI", "CNTRY_NAME": "Chile", "STATUS": "Provincial capital", "POP": 236724, "POP_RANK": 5, "POP_CLASS": "100,000 to 249,999", "PORT_ID": 0, "LABEL_FLAG": 0, "POP_SOURCE": "UN_Data_2010_2020" }, "geometry": { "type": "Point", "coordinates": [ -71.659997700194396, -35.423001036101503 ] } },
{ "type": "Feature", "properties": { "FID": 32, "OBJECTID": 32, "CITY_NAME": "Concepcion", "GMI_ADMIN": "CHL-BIO", "ADMIN_NAME": "Bio-Bio", "FIPS_CNTRY": "CI", "CNTRY_NAME": "Chile", "STATUS": "Provincial capital", "POP": 238092, "POP_RANK": 5, "POP_CLASS": "100,000 to 249,999", "PORT_ID": 0, "LABEL_FLAG": 0, "POP_SOURCE": "UN_Data_2010_2020" }, "geometry": { "type": "Point", "coordinates": [ -73.054997641207095, -36.826001946545603 ] } },
{ "type": "Feature", "properties": { "FID": 33, "OBJECTID": 33, "CITY_NAME": "Temuco", "GMI_ADMIN": "CHL-ARC", "ADMIN_NAME": "Araucania", "FIPS_CNTRY": "CI", "CNTRY_NAME": "Chile", "STATUS": "Provincial capital", "POP": 302931, "POP_RANK": 4, "POP_CLASS": "250,000 to 499,999", "PORT_ID": 0, "LABEL_FLAG": 0, "POP_SOURCE": "UN_Data_2010_2020" }, "geometry": { "type": "Point", "coordinates": [ -72.575999563633999, -38.728997997674497 ] } },
{ "type": "Feature", "properties": { "FID": 34, "OBJECTID": 34, "CITY_NAME": "Neuquen", "GMI_ADMIN": "ARG-NEU", "ADMIN_NAME": "Neuquen", "FIPS_CNTRY": "AR", "CNTRY_NAME": "Argentina", "STATUS": "Provincial capital", "POP": 307682, "POP_RANK": 4, "POP_CLASS": "250,000 to 499,999", "PORT_ID": 0, "LABEL_FLAG": 1, "POP_SOURCE": "UN_Data_2010_2020" }, "geometry": { "type": "Point", "coordinates": [ -68.283332596859296, -38.944908002797803 ] } },
{ "type": "Feature", "properties": { "FID": 35, "OBJECTID": 35, "CITY_NAME": "Puerto Montt", "GMI_ADMIN": "CHL-LLA", "ADMIN_NAME": "Los Lagos", "FIPS_CNTRY": "CI", "CNTRY_NAME": "Chile", "STATUS": "Provincial capital", "POP": 269398, "POP_RANK": 4, "POP_CLASS": "250,000 to 499,999", "PORT_ID": 14270, "LABEL_FLAG": 0, "POP_SOURCE": "UN_Data_2010_2020" }, "geometry": { "type": "Point", "coordinates": [ -72.952001604714596, -41.474996933143302 ] } },
{ "type": "Feature", "properties": { "FID": 36, "OBJECTID": 36, "CITY_NAME": "Antofagasta", "GMI_ADMIN": "CHL-ANT", "ADMIN_NAME": "Antofagasta", "FIPS_CNTRY": "CI", "CNTRY_NAME": "Chile", "STATUS": "Provincial capital", "POP": 425725, "POP_RANK": 4, "POP_CLASS": "250,000 to 499,999", "PORT_ID": 14660, "LABEL_FLAG": 1, "POP_SOURCE": "UN_Data_2010_2020" }, "geometry": { "type": "Point", "coordinates": [ -70.398998648551, -23.641002050325898 ] } },
{ "type": "Feature", "properties": { "FID": 37, "OBJECTID": 37, "CITY_NAME": "Copiapo", "GMI_ADMIN": "CHL-ATC", "ADMIN_NAME": "Atacama", "FIPS_CNTRY": "CI", "CNTRY_NAME": "Chile", "STATUS": "Provincial capital", "POP": 171766, "POP_RANK": 5, "POP_CLASS": "100,000 to 249,999", "PORT_ID": 0, "LABEL_FLAG": 0, "POP_SOURCE": "UN_Data_2010_2020" }, "geometry": { "type": "Point", "coordinates": [ -70.332002589183404, -27.360000054954298 ] } },
{ "type": "Feature", "properties": { "FID": 38, "OBJECTID": 38, "CITY_NAME": "La Serena", "GMI_ADMIN": "CHL-CQM", "ADMIN_NAME": "Coquimbo", "FIPS_CNTRY": "CI", "CNTRY_NAME": "Chile", "STATUS": "Provincial capital", "POP": 249656, "POP_RANK": 5, "POP_CLASS": "100,000 to 249,999", "PORT_ID": 0, "LABEL_FLAG": 0, "POP_SOURCE": "UN_Data_2010_2020" }, "geometry": { "type": "Point", "coordinates": [ -71.244998607439896, -29.900997006170002 ] } },
{ "type": "Feature", "properties": { "FID": 39, "OBJECTID": 39, "CITY_NAME": "San Juan", "GMI_ADMIN": "ARG-SJU", "ADMIN_NAME": "San Juan", "FIPS_CNTRY": "AR", "CNTRY_NAME": "Argentina", "STATUS": "Provincial capital", "POP": 535947, "POP_RANK": 3, "POP_CLASS": "500,000 to 999,999", "PORT_ID": 0, "LABEL_FLAG": 1, "POP_SOURCE": "UN_Data_2010_2020" }, "geometry": { "type": "Point", "coordinates": [ -68.526998679664601, -31.534001999495199 ] } },
{ "type": "Feature", "properties": { "FID": 40, "OBJECTID": 40, "CITY_NAME": "Mendoza", "GMI_ADMIN": "ARG-MND", "ADMIN_NAME": "Mendoza", "FIPS_CNTRY": "AR", "CNTRY_NAME": "Argentina", "STATUS": "Provincial capital", "POP": 1025407, "POP_RANK": 2, "POP_CLASS": "1,000,000 to 4,999,999", "PORT_ID": 0, "LABEL_FLAG": 1, "POP_SOURCE": "UN_Data_2010_2020" }, "geometry": { "type": "Point", "coordinates": [ -68.830001576161806, -32.896998062781599 ] } },
{ "type": "Feature", "properties": { "FID": 41, "OBJECTID": 41, "CITY_NAME": "Valparaiso", "GMI_ADMIN": "CHL-VLP", "ADMIN_NAME": "Valparaiso", "FIPS_CNTRY": "CI", "CNTRY_NAME": "Chile", "STATUS": "Provincial capital", "POP": 315732, "POP_RANK": 4, "POP_CLASS": "250,000 to 499,999", "PORT_ID": 14500, "LABEL_FLAG": 1, "POP_SOURCE": "UN_Data_2010_2020" }, "geometry": { "type": "Point", "coordinates": [ -71.555003614002501, -33.020999933019802 ] } },
{ "type": "Feature", "properties": { "FID": 42, "OBJECTID": 42, "CITY_NAME": "Santiago", "GMI_ADMIN": "CHL-RMT", "ADMIN_NAME": "Region Metropolitana", "FIPS_CNTRY": "CI", "CNTRY_NAME": "Chile", "STATUS": "National and provincial capital", "POP": 6748000, "POP_RANK": 1, "POP_CLASS": "5,000,000 and greater", "PORT_ID": 0, "LABEL_FLAG": 0, "POP_SOURCE": "UN_Habitat_2020" }, "geometry": { "type": "Point", "coordinates": [ -70.647515553854006, -33.475023051285099 ] } },
{ "type": "Feature", "properties": { "FID": 43, "OBJECTID": 43, "CITY_NAME": "Coquimbo", "GMI_ADMIN": "CHL-CQM", "ADMIN_NAME": "Coquimbo", "FIPS_CNTRY": "CI", "CNTRY_NAME": "Chile", "STATUS": "Other", "POP": 256735, "POP_RANK": 4, "POP_CLASS": "250,000 to 499,999", "PORT_ID": 14570, "LABEL_FLAG": 1, "POP_SOURCE": "UN_Data_2010_2020" }, "geometry": { "type": "Point", "coordinates": [ -71.332001641186906, -29.959002007373901 ] } },
{ "type": "Feature", "properties": { "FID": 44, "OBJECTID": 44, "CITY_NAME": "Portoviejo", "GMI_ADMIN": "ECU-MAN", "ADMIN_NAME": "Manabi", "FIPS_CNTRY": "EC", "CNTRY_NAME": "Ecuador", "STATUS": "Provincial capital", "POP": 223086, "POP_RANK": 5, "POP_CLASS": "100,000 to 249,999", "PORT_ID": 0, "LABEL_FLAG": 0, "POP_SOURCE": "UN_Data_2010_2020" }, "geometry": { "type": "Point", "coordinates": [ -80.454995623639604, -1.0559969660655 ] } },
{ "type": "Feature", "properties": { "FID": 45, "OBJECTID": 45, "CITY_NAME": "Guaranda", "GMI_ADMIN": "ECU-BLV", "ADMIN_NAME": "Bolivar", "FIPS_CNTRY": "EC", "CNTRY_NAME": "Ecuador", "STATUS": "Provincial capital", "POP": 0, "POP_RANK": 0, "POP_CLASS": " ", "PORT_ID": 0, "LABEL_FLAG": 0, "POP_SOURCE": " " }, "geometry": { "type": "Point", "coordinates": [ -79.002998642390395, -1.60599597303901 ] } },
{ "type": "Feature", "properties": { "FID": 46, "OBJECTID": 46, "CITY_NAME": "Babahoyo", "GMI_ADMIN": "ECU-LRI", "ADMIN_NAME": "Los Rios", "FIPS_CNTRY": "EC", "CNTRY_NAME": "Ecuador", "STATUS": "Provincial capital", "POP": 0, "POP_RANK": 0, "POP_CLASS": " ", "PORT_ID": 0, "LABEL_FLAG": 0, "POP_SOURCE": " " }, "geometry": { "type": "Point", "coordinates": [ -79.530002702036498, -1.79499601842896 ] } },
{ "type": "Feature", "properties": { "FID": 47, "OBJECTID": 47, "CITY_NAME": "Guayaquil", "GMI_ADMIN": "ECU-GUA", "ADMIN_NAME": "Guayas", "FIPS_CNTRY": "EC", "CNTRY_NAME": "Ecuador", "STATUS": "Provincial capital", "POP": 2291158, "POP_RANK": 2, "POP_CLASS": "1,000,000 to 4,999,999", "PORT_ID": 15270, "LABEL_FLAG": 0, "POP_SOURCE": "UN_Data_2010_2020" }, "geometry": { "type": "Point", "coordinates": [ -79.907876694268296, -2.20309196034628 ] } },
{ "type": "Feature", "properties": { "FID": 48, "OBJECTID": 48, "CITY_NAME": "Azogues", "GMI_ADMIN": "ECU-CAN", "ADMIN_NAME": "Canar", "FIPS_CNTRY": "EC", "CNTRY_NAME": "Ecuador", "STATUS": "Provincial capital", "POP": 0, "POP_RANK": 0, "POP_CLASS": " ", "PORT_ID": 0, "LABEL_FLAG": 0, "POP_SOURCE": " " }, "geometry": { "type": "Point", "coordinates": [ -78.843995654393296, -2.75000403514377 ] } },
{ "type": "Feature", "properties": { "FID": 49, "OBJECTID": 49, "CITY_NAME": "Leticia", "GMI_ADMIN": "COL-AMZ", "ADMIN_NAME": "Amazonas", "FIPS_CNTRY": "CO", "CNTRY_NAME": "Colombia", "STATUS": "Provincial capital", "POP": 0, "POP_RANK": 0, "POP_CLASS": " ", "PORT_ID": 0, "LABEL_FLAG": 0, "POP_SOURCE": " " }, "geometry": { "type": "Point", "coordinates": [ -69.949997628370696, -4.14999893492125 ] } },
{ "type": "Feature", "properties": { "FID": 50, "OBJECTID": 50, "CITY_NAME": "Rio Branco", "GMI_ADMIN": "BRA-ACR", "ADMIN_NAME": "Acre", "FIPS_CNTRY": "BR", "CNTRY_NAME": "Brazil", "STATUS": "Provincial capital", "POP": 308545, "POP_RANK": 4, "POP_CLASS": "250,000 to 499,999", "PORT_ID": 0, "LABEL_FLAG": 0, "POP_SOURCE": "UN_Data_2010_2020" }, "geometry": { "type": "Point", "coordinates": [ -67.812002701079507, -9.9790019607487 ] } },
{ "type": "Feature", "properties": { "FID": 51, "OBJECTID": 51, "CITY_NAME": "Cobija", "GMI_ADMIN": "BOL-PAN", "ADMIN_NAME": "Pando", "FIPS_CNTRY": "BL", "CNTRY_NAME": "Bolivia", "STATUS": "Provincial capital", "POP": 0, "POP_RANK": 0, "POP_CLASS": " ", "PORT_ID": 0, "LABEL_FLAG": 0, "POP_SOURCE": " " }, "geometry": { "type": "Point", "coordinates": [ -68.797547582882999, -11.032497080698001 ] } },
{ "type": "Feature", "properties": { "FID": 52, "OBJECTID": 52, "CITY_NAME": "Baquerizo Moreno", "GMI_ADMIN": "ECU-GLP", "ADMIN_NAME": "Galapagos", "FIPS_CNTRY": "EC", "CNTRY_NAME": "Ecuador", "STATUS": "Provincial capital", "POP": 0, "POP_RANK": 0, "POP_CLASS": " ", "PORT_ID": 15345, "LABEL_FLAG": 0, "POP_SOURCE": " " }, "geometry": { "type": "Point", "coordinates": [ -89.605997715387005, -0.899999988735043 ] } },
{ "type": "Feature", "properties": { "FID": 53, "OBJECTID": 53, "CITY_NAME": "Cuenca", "GMI_ADMIN": "ECU-AZU", "ADMIN_NAME": "Azuay", "FIPS_CNTRY": "EC", "CNTRY_NAME": "Ecuador", "STATUS": "Provincial capital", "POP": 331888, "POP_RANK": 4, "POP_CLASS": "250,000 to 499,999", "PORT_ID": 0, "LABEL_FLAG": 0, "POP_SOURCE": "UN_Data_2010_2020" }, "geometry": { "type": "Point", "coordinates": [ -79.014995711220706, -2.89800004304267 ] } },
{ "type": "Feature", "properties": { "FID": 54, "OBJECTID": 54, "CITY_NAME": "Machala", "GMI_ADMIN": "ECU-EOR", "ADMIN_NAME": "El Oro", "FIPS_CNTRY": "EC", "CNTRY_NAME": "Ecuador", "STATUS": "Provincial capital", "POP": 241606, "POP_RANK": 5, "POP_CLASS": "100,000 to 249,999", "PORT_ID": 0, "LABEL_FLAG": 0, "POP_SOURCE": "UN_Data_2010_2020" }, "geometry": { "type": "Point", "coordinates": [ -79.954001623588795, -3.26600094920804 ] } },
{ "type": "Feature", "properties": { "FID": 55, "OBJECTID": 55, "CITY_NAME": "Tumbes", "GMI_ADMIN": "PER-TMB", "ADMIN_NAME": "Tumbes", "FIPS_CNTRY": "PE", "CNTRY_NAME": "Peru", "STATUS": "Provincial capital", "POP": 0, "POP_RANK": 0, "POP_CLASS": " ", "PORT_ID": 0, "LABEL_FLAG": 1, "POP_SOURCE": " " }, "geometry": { "type": "Point", "coordinates": [ -80.4539965987899, -3.5679960502216 ] } },
{ "type": "Feature", "properties": { "FID": 56, "OBJECTID": 56, "CITY_NAME": "Loja", "GMI_ADMIN": "ECU-LOJ", "ADMIN_NAME": "Loja", "FIPS_CNTRY": "EC", "CNTRY_NAME": "Ecuador", "STATUS": "Provincial capital", "POP": 180617, "POP_RANK": 5, "POP_CLASS": "100,000 to 249,999", "PORT_ID": 0, "LABEL_FLAG": 1, "POP_SOURCE": "UN_Data_2010_2020" }, "geometry": { "type": "Point", "coordinates": [ -79.203995591127097, -3.98999692207439 ] } },
{ "type": "Feature", "properties": { "FID": 57, "OBJECTID": 57, "CITY_NAME": "Zamora", "GMI_ADMIN": "ECU-ZCH", "ADMIN_NAME": "Zamora-Chinchipe", "FIPS_CNTRY": "EC", "CNTRY_NAME": "Ecuador", "STATUS": "Provincial capital", "POP": 0, "POP_RANK": 0, "POP_CLASS": " ", "PORT_ID": 0, "LABEL_FLAG": 0, "POP_SOURCE": " " }, "geometry": { "type": "Point", "coordinates": [ -78.956999646134406, -4.06899898639001 ] } },
{ "type": "Feature", "properties": { "FID": 58, "OBJECTID": 58, "CITY_NAME": "Piura", "GMI_ADMIN": "PER-PIU", "ADMIN_NAME": "Piura", "FIPS_CNTRY": "PE", "CNTRY_NAME": "Peru", "STATUS": "Provincial capital", "POP": 473025, "POP_RANK": 4, "POP_CLASS": "250,000 to 499,999", "PORT_ID": 0, "LABEL_FLAG": 1, "POP_SOURCE": "UN_Data_2010_2020" }, "geometry": { "type": "Point", "coordinates": [ -80.624996655617295, -5.19399893348134 ] } },
{ "type": "Feature", "properties": { "FID": 59, "OBJECTID": 59, "CITY_NAME": "Chiclayo", "GMI_ADMIN": "PER-LMB", "ADMIN_NAME": "Lambayeque", "FIPS_CNTRY": "PE", "CNTRY_NAME": "Peru", "STATUS": "Provincial capital", "POP": 552508, "POP_RANK": 3, "POP_CLASS": "500,000 to 999,999", "PORT_ID": 0, "LABEL_FLAG": 0, "POP_SOURCE": "UN_Data_2010_2020" }, "geometry": { "type": "Point", "coordinates": [ -79.837001697932493, -6.76299600587061 ] } },
{ "type": "Feature", "properties": { "FID": 60, "OBJECTID": 60, "CITY_NAME": "Trujillo", "GMI_ADMIN": "PER-LLB", "ADMIN_NAME": "La Libertad", "FIPS_CNTRY": "PE", "CNTRY_NAME": "Peru", "STATUS": "Provincial capital", "POP": 919899, "POP_RANK": 3, "POP_CLASS": "500,000 to 999,999", "PORT_ID": 0, "LABEL_FLAG": 0, "POP_SOURCE": "UN_Data_2010_2020" }, "geometry": { "type": "Point", "coordinates": [ -79.029998625234199, -8.11199695062721 ] } },
{ "type": "Feature", "properties": { "FID": 61, "OBJECTID": 61, "CITY_NAME": "Mayobamba", "GMI_ADMIN": "PER-SMR", "ADMIN_NAME": "San Martin", "FIPS_CNTRY": "PE", "CNTRY_NAME": "Peru", "STATUS": "Provincial capital", "POP": 0, "POP_RANK": 0, "POP_CLASS": " ", "PORT_ID": 0, "LABEL_FLAG": 0, "POP_SOURCE": " " }, "geometry": { "type": "Point", "coordinates": [ -76.989995674069306, -6.0120000501604 ] } },
{ "type": "Feature", "properties": { "FID": 62, "OBJECTID": 62, "CITY_NAME": "Chachapoyas", "GMI_ADMIN": "PER-AMZ", "ADMIN_NAME": "Amazonas", "FIPS_CNTRY": "PE", "CNTRY_NAME": "Peru", "STATUS": "Provincial capital", "POP": 0, "POP_RANK": 0, "POP_CLASS": " ", "PORT_ID": 0, "LABEL_FLAG": 0, "POP_SOURCE": " " }, "geometry": { "type": "Point", "coordinates": [ -77.867999676167997, -6.23500202297601 ] } },
{ "type": "Feature", "properties": { "FID": 63, "OBJECTID": 63, "CITY_NAME": "Cajamarca", "GMI_ADMIN": "PER-CJM", "ADMIN_NAME": "Cajamarca", "FIPS_CNTRY": "PE", "CNTRY_NAME": "Peru", "STATUS": "Provincial capital", "POP": 201329, "POP_RANK": 5, "POP_CLASS": "100,000 to 249,999", "PORT_ID": 0, "LABEL_FLAG": 1, "POP_SOURCE": "UN_Data_2010_2020" }, "geometry": { "type": "Point", "coordinates": [ -78.510995700503102, -7.16200193039606 ] } },
{ "type": "Feature", "properties": { "FID": 64, "OBJECTID": 64, "CITY_NAME": "Pucallpa", "GMI_ADMIN": "PER-UCY", "ADMIN_NAME": "Ucayali", "FIPS_CNTRY": "PE", "CNTRY_NAME": "Peru", "STATUS": "Provincial capital", "POP": 327568, "POP_RANK": 4, "POP_CLASS": "250,000 to 499,999", "PORT_ID": 0, "LABEL_FLAG": 0, "POP_SOURCE": "UN_Data_2010_2020" }, "geometry": { "type": "Point", "coordinates": [ -74.527001596835902, -8.387001004914501 ] } },
{ "type": "Feature", "properties": { "FID": 65, "OBJECTID": 65, "CITY_NAME": "Chimbote", "GMI_ADMIN": "PER-ANC", "ADMIN_NAME": "Ancash", "FIPS_CNTRY": "PE", "CNTRY_NAME": "Peru", "STATUS": "Other", "POP": 354273, "POP_RANK": 4, "POP_CLASS": "250,000 to 499,999", "PORT_ID": 15030, "LABEL_FLAG": 0, "POP_SOURCE": "UN_Data_2010_2020" }, "geometry": { "type": "Point", "coordinates": [ -78.4531436062002, -8.93009702653438 ] } },
{ "type": "Feature", "properties": { "FID": 66, "OBJECTID": 66, "CITY_NAME": "Huaraz", "GMI_ADMIN": "PER-ANC", "ADMIN_NAME": "Ancash", "FIPS_CNTRY": "PE", "CNTRY_NAME": "Peru", "STATUS": "Provincial capital", "POP": 118836, "POP_RANK": 5, "POP_CLASS": "100,000 to 249,999", "PORT_ID": 0, "LABEL_FLAG": 0, "POP_SOURCE": "UN_Data_2010_2020" }, "geometry": { "type": "Point", "coordinates": [ -77.531003622879197, -9.53600402578428 ] } },
{ "type": "Feature", "properties": { "FID": 67, "OBJECTID": 67, "CITY_NAME": "Huanuco", "GMI_ADMIN": "PER-HUA", "ADMIN_NAME": "Huanuco", "FIPS_CNTRY": "PE", "CNTRY_NAME": "Peru", "STATUS": "Provincial capital", "POP": 196627, "POP_RANK": 5, "POP_CLASS": "100,000 to 249,999", "PORT_ID": 0, "LABEL_FLAG": 1, "POP_SOURCE": "UN_Data_2010_2020" }, "geometry": { "type": "Point", "coordinates": [ -76.230998583444006, -9.92500199506129 ] } },
{ "type": "Feature", "properties": { "FID": 68, "OBJECTID": 68, "CITY_NAME": "Cerro De Pasco", "GMI_ADMIN": "PER-PAS", "ADMIN_NAME": "Pasco", "FIPS_CNTRY": "PE", "CNTRY_NAME": "Peru", "STATUS": "Provincial capital", "POP": 0, "POP_RANK": 0, "POP_CLASS": " ", "PORT_ID": 0, "LABEL_FLAG": 0, "POP_SOURCE": " " }, "geometry": { "type": "Point", "coordinates": [ -76.263002626653801, -10.686995994752101 ] } },
{ "type": "Feature", "properties": { "FID": 69, "OBJECTID": 69, "CITY_NAME": "Quito", "GMI_ADMIN": "ECU-PCH", "ADMIN_NAME": "Pichincha", "FIPS_CNTRY": "EC", "CNTRY_NAME": "Ecuador", "STATUS": "National and provincial capital", "POP": 1619146, "POP_RANK": 2, "POP_CLASS": "1,000,000 to 4,999,999", "PORT_ID": 0, "LABEL_FLAG": 0, "POP_SOURCE": "UN_Data_2010_2020" }, "geometry": { "type": "Point", "coordinates": [ -78.524279570266401, -0.229499918330703 ] } },
{ "type": "Feature", "properties": { "FID": 70, "OBJECTID": 70, "CITY_NAME": "La Tacunga", "GMI_ADMIN": "ECU-CTP", "ADMIN_NAME": "Cotopaxi", "FIPS_CNTRY": "EC", "CNTRY_NAME": "Ecuador", "STATUS": "Provincial capital", "POP": 0, "POP_RANK": 0, "POP_CLASS": " ", "PORT_ID": 0, "LABEL_FLAG": 0, "POP_SOURCE": " " }, "geometry": { "type": "Point", "coordinates": [ -78.605999703681803, -0.932004031944935 ] } },
{ "type": "Feature", "properties": { "FID": 71, "OBJECTID": 71, "CITY_NAME": "Tena", "GMI_ADMIN": "ECU-NAP", "ADMIN_NAME": "Napo", "FIPS_CNTRY": "EC", "CNTRY_NAME": "Ecuador", "STATUS": "Provincial capital", "POP": 0, "POP_RANK": 0, "POP_CLASS": " ", "PORT_ID": 0, "LABEL_FLAG": 0, "POP_SOURCE": " " }, "geometry": { "type": "Point", "coordinates": [ -77.8166995763779, -0.983303966251288 ] } },
{ "type": "Feature", "properties": { "FID": 72, "OBJECTID": 72, "CITY_NAME": "Ambato", "GMI_ADMIN": "ECU-TNG", "ADMIN_NAME": "Tungurahua", "FIPS_CNTRY": "EC", "CNTRY_NAME": "Ecuador", "STATUS": "Provincial capital", "POP": 178538, "POP_RANK": 5, "POP_CLASS": "100,000 to 249,999", "PORT_ID": 0, "LABEL_FLAG": 0, "POP_SOURCE": "UN_Data_2010_2020" }, "geometry": { "type": "Point", "coordinates": [ -78.620003592845507, -1.24000205269062 ] } },
{ "type": "Feature", "properties": { "FID": 73, "OBJECTID": 73, "CITY_NAME": "Puyo", "GMI_ADMIN": "ECU-PST", "ADMIN_NAME": "Pastaza", "FIPS_CNTRY": "EC", "CNTRY_NAME": "Ecuador", "STATUS": "Provincial capital", "POP": 0, "POP_RANK": 0, "POP_CLASS": " ", "PORT_ID": 0, "LABEL_FLAG": 0, "POP_SOURCE": " " }, "geometry": { "type": "Point", "coordinates": [ -77.986997651523794, -1.48300206376803 ] } },
{ "type": "Feature", "properties": { "FID": 74, "OBJECTID": 74, "CITY_NAME": "Riobamba", "GMI_ADMIN": "ECU-CHM", "ADMIN_NAME": "Chimborazo", "FIPS_CNTRY": "EC", "CNTRY_NAME": "Ecuador", "STATUS": "Provincial capital", "POP": 156723, "POP_RANK": 5, "POP_CLASS": "100,000 to 249,999", "PORT_ID": 0, "LABEL_FLAG": 0, "POP_SOURCE": "UN_Data_2010_2020" }, "geometry": { "type": "Point", "coordinates": [ -78.644996589872306, -1.67100291882475 ] } },
{ "type": "Feature", "properties": { "FID": 75, "OBJECTID": 75, "CITY_NAME": "Macas", "GMI_ADMIN": "ECU-MSN", "ADMIN_NAME": "Morona-Santiago", "FIPS_CNTRY": "EC", "CNTRY_NAME": "Ecuador", "STATUS": "Provincial capital", "POP": 0, "POP_RANK": 0, "POP_CLASS": " ", "PORT_ID": 0, "LABEL_FLAG": 0, "POP_SOURCE": " " }, "geometry": { "type": "Point", "coordinates": [ -78.114995621160602, -2.3129999183102 ] } },
{ "type": "Feature", "properties": { "FID": 76, "OBJECTID": 76, "CITY_NAME": "Iquitos", "GMI_ADMIN": "PER-LOR", "ADMIN_NAME": "Loreto", "FIPS_CNTRY": "PE", "CNTRY_NAME": "Peru", "STATUS": "Provincial capital", "POP": 377609, "POP_RANK": 4, "POP_CLASS": "250,000 to 499,999", "PORT_ID": 12570, "LABEL_FLAG": 0, "POP_SOURCE": "UN_Data_2010_2020" }, "geometry": { "type": "Point", "coordinates": [ -73.190996580275595, -3.75299999621269 ] } },
{ "type": "Feature", "properties": { "FID": 77, "OBJECTID": 77, "CITY_NAME": "Callao", "GMI_ADMIN": "PER-CAL", "ADMIN_NAME": "Callao", "FIPS_CNTRY": "PE", "CNTRY_NAME": "Peru", "STATUS": "Provincial capital", "POP": 0, "POP_RANK": 0, "POP_CLASS": " ", "PORT_ID": 14950, "LABEL_FLAG": 1, "POP_SOURCE": " " }, "geometry": { "type": "Point", "coordinates": [ -77.144003703301607, -12.057002938738 ] } },
{ "type": "Feature", "properties": { "FID": 78, "OBJECTID": 78, "CITY_NAME": "Huancayo", "GMI_ADMIN": "PER-JUN", "ADMIN_NAME": "Junin", "FIPS_CNTRY": "PE", "CNTRY_NAME": "Peru", "STATUS": "Provincial capital", "POP": 465834, "POP_RANK": 4, "POP_CLASS": "250,000 to 499,999", "PORT_ID": 0, "LABEL_FLAG": 0, "POP_SOURCE": "UN_Data_2010_2020" }, "geometry": { "type": "Point", "coordinates": [ -75.211001658662198, -12.075002927300501 ] } },
{ "type": "Feature", "properties": { "FID": 79, "OBJECTID": 79, "CITY_NAME": "Huancavelica", "GMI_ADMIN": "PER-HNC", "ADMIN_NAME": "Huancavelica", "FIPS_CNTRY": "PE", "CNTRY_NAME": "Peru", "STATUS": "Provincial capital", "POP": 0, "POP_RANK": 0, "POP_CLASS": " ", "PORT_ID": 0, "LABEL_FLAG": 1, "POP_SOURCE": " " }, "geometry": { "type": "Point", "coordinates": [ -74.986001636147193, -12.7899990713692 ] } },
{ "type": "Feature", "properties": { "FID": 80, "OBJECTID": 80, "CITY_NAME": "Ayacucho", "GMI_ADMIN": "PER-AYC", "ADMIN_NAME": "Ayacucho", "FIPS_CNTRY": "PE", "CNTRY_NAME": "Peru", "STATUS": "Provincial capital", "POP": 216444, "POP_RANK": 5, "POP_CLASS": "100,000 to 249,999", "PORT_ID": 0, "LABEL_FLAG": 1, "POP_SOURCE": "UN_Data_2010_2020" }, "geometry": { "type": "Point", "coordinates": [ -74.221001625789597, -13.1730030570317 ] } },
{ "type": "Feature", "properties": { "FID": 81, "OBJECTID": 81, "CITY_NAME": "Ica", "GMI_ADMIN": "PER-ICA", "ADMIN_NAME": "Ica", "FIPS_CNTRY": "PE", "CNTRY_NAME": "Peru", "STATUS": "Provincial capital", "POP": 289861, "POP_RANK": 4, "POP_CLASS": "250,000 to 499,999", "PORT_ID": 0, "LABEL_FLAG": 1, "POP_SOURCE": "UN_Data_2010_2020" }, "geometry": { "type": "Point", "coordinates": [ -75.743999701922903, -14.0640029873268 ] } },
{ "type": "Feature", "properties": { "FID": 82, "OBJECTID": 82, "CITY_NAME": "Moquegua", "GMI_ADMIN": "PER-MOQ", "ADMIN_NAME": "Moquegua", "FIPS_CNTRY": "PE", "CNTRY_NAME": "Peru", "STATUS": "Provincial capital", "POP": 0, "POP_RANK": 0, "POP_CLASS": " ", "PORT_ID": 0, "LABEL_FLAG": 1, "POP_SOURCE": " " }, "geometry": { "type": "Point", "coordinates": [ -70.930997666962, -17.193995997190001 ] } },
{ "type": "Feature", "properties": { "FID": 83, "OBJECTID": 83, "CITY_NAME": "Tacna", "GMI_ADMIN": "PER-TAC", "ADMIN_NAME": "Tacna", "FIPS_CNTRY": "PE", "CNTRY_NAME": "Peru", "STATUS": "Provincial capital", "POP": 286240, "POP_RANK": 4, "POP_CLASS": "250,000 to 499,999", "PORT_ID": 0, "LABEL_FLAG": 1, "POP_SOURCE": "UN_Data_2010_2020" }, "geometry": { "type": "Point", "coordinates": [ -70.251002640652104, -18.018000033601101 ] } },
{ "type": "Feature", "properties": { "FID": 84, "OBJECTID": 84, "CITY_NAME": "Iquique", "GMI_ADMIN": "CHL-TRP", "ADMIN_NAME": "Tarapaca", "FIPS_CNTRY": "CI", "CNTRY_NAME": "Chile", "STATUS": "Provincial capital", "POP": 223463, "POP_RANK": 5, "POP_CLASS": "100,000 to 249,999", "PORT_ID": 14760, "LABEL_FLAG": 0, "POP_SOURCE": "UN_Data_2010_2020" }, "geometry": { "type": "Point", "coordinates": [ -70.1489966928917, -20.221002072161902 ] } },
{ "type": "Feature", "properties": { "FID": 85, "OBJECTID": 85, "CITY_NAME": "Lima", "GMI_ADMIN": "PER-LIM", "ADMIN_NAME": "Lima", "FIPS_CNTRY": "PE", "CNTRY_NAME": "Peru", "STATUS": "National and provincial capital", "POP": 9562280, "POP_RANK": 1, "POP_CLASS": "5,000,000 and greater", "PORT_ID": 0, "LABEL_FLAG": 1, "POP_SOURCE": "UN_Data_2010_2020" }, "geometry": { "type": "Point", "coordinates": [ -77.045003600724101, -12.0819959357647 ] } },
{ "type": "Feature", "properties": { "FID": 86, "OBJECTID": 86, "CITY_NAME": "Belem", "GMI_ADMIN": "BRA-PAR", "ADMIN_NAME": "Para", "FIPS_CNTRY": "BR", "CNTRY_NAME": "Brazil", "STATUS": "Provincial capital", "POP": 1381475, "POP_RANK": 2, "POP_CLASS": "1,000,000 to 4,999,999", "PORT_ID": 12490, "LABEL_FLAG": 0, "POP_SOURCE": "UN_Data_2010_2020" }, "geometry": { "type": "Point", "coordinates": [ -48.498002562234397, -1.43900095172785 ] } },
{ "type": "Feature", "properties": { "FID": 87, "OBJECTID": 87, "CITY_NAME": "Santarem", "GMI_ADMIN": "BRA-PAR", "ADMIN_NAME": "Para", "FIPS_CNTRY": "BR", "CNTRY_NAME": "Brazil", "STATUS": "Other", "POP": 205711, "POP_RANK": 5, "POP_CLASS": "100,000 to 249,999", "PORT_ID": 12510, "LABEL_FLAG": 0, "POP_SOURCE": "UN_Data_2010_2020" }, "geometry": { "type": "Point", "coordinates": [ -54.610001675663298, -2.45999706684296 ] } },
{ "type": "Feature", "properties": { "FID": 88, "OBJECTID": 88, "CITY_NAME": "Manaus", "GMI_ADMIN": "BRA-AMZ", "ADMIN_NAME": "Amazonas", "FIPS_CNTRY": "BR", "CNTRY_NAME": "Brazil", "STATUS": "Provincial capital", "POP": 1792881, "POP_RANK": 2, "POP_CLASS": "1,000,000 to 4,999,999", "PORT_ID": 12560, "LABEL_FLAG": 0, "POP_SOURCE": "UN_Data_2010_2020" }, "geometry": { "type": "Point", "coordinates": [ -60.014996678337198, -3.12200104070791 ] } },
{ "type": "Feature", "properties": { "FID": 89, "OBJECTID": 89, "CITY_NAME": "Porto Velho", "GMI_ADMIN": "BRA-RND", "ADMIN_NAME": "Rondonia", "FIPS_CNTRY": "BR", "CNTRY_NAME": "Brazil", "STATUS": "Provincial capital", "POP": 369259, "POP_RANK": 4, "POP_CLASS": "250,000 to 499,999", "PORT_ID": 0, "LABEL_FLAG": 0, "POP_SOURCE": "UN_Data_2010_2020" }, "geometry": { "type": "Point", "coordinates": [ -63.906002700760403, -8.76200402114535 ] } },
{ "type": "Feature", "properties": { "FID": 90, "OBJECTID": 90, "CITY_NAME": "Palmas", "GMI_ADMIN": "BRA-TCN", "ADMIN_NAME": "Tocantins", "FIPS_CNTRY": "BR", "CNTRY_NAME": "Brazil", "STATUS": "Provincial capital", "POP": 221742, "POP_RANK": 5, "POP_CLASS": "100,000 to 249,999", "PORT_ID": 0, "LABEL_FLAG": 0, "POP_SOURCE": "UN_Data_2010_2020" }, "geometry": { "type": "Point", "coordinates": [ -48.3603476281897, -10.2127679836511 ] } },
{ "type": "Feature", "properties": { "FID": 91, "OBJECTID": 91, "CITY_NAME": "Mayor Pablo Lagerenza", "GMI_ADMIN": "PRY-CHA", "ADMIN_NAME": "Chaco", "FIPS_CNTRY": "PA", "CNTRY_NAME": "Paraguay", "STATUS": "Provincial capital", "POP": 0, "POP_RANK": 0, "POP_CLASS": " ", "PORT_ID": 0, "LABEL_FLAG": 0, "POP_SOURCE": " " }, "geometry": { "type": "Point", "coordinates": [ -60.749999631301897, -19.966698037818102 ] } },
{ "type": "Feature", "properties": { "FID": 92, "OBJECTID": 92, "CITY_NAME": "Fuerte Otimpo", "GMI_ADMIN": "PRY-APR", "ADMIN_NAME": "Alto Paraguay", "FIPS_CNTRY": "PA", "CNTRY_NAME": "Paraguay", "STATUS": "Provincial capital", "POP": 0, "POP_RANK": 0, "POP_CLASS": " ", "PORT_ID": 0, "LABEL_FLAG": 0, "POP_SOURCE": " " }, "geometry": { "type": "Point", "coordinates": [ -58.030001653827298, -21.035997012690601 ] } },
{ "type": "Feature", "properties": { "FID": 93, "OBJECTID": 93, "CITY_NAME": "Mariscal Jose F. Estigarribia", "GMI_ADMIN": "PRY-BQR", "ADMIN_NAME": "Boqueron", "FIPS_CNTRY": "PA", "CNTRY_NAME": "Paraguay", "STATUS": "Provincial capital", "POP": 0, "POP_RANK": 0, "POP_CLASS": " ", "PORT_ID": 0, "LABEL_FLAG": 0, "POP_SOURCE": " " }, "geometry": { "type": "Point", "coordinates": [ -60.609995656716897, -22.030002081079399 ] } },
{ "type": "Feature", "properties": { "FID": 94, "OBJECTID": 94, "CITY_NAME": "Trinidad", "GMI_ADMIN": "BOL-EBE", "ADMIN_NAME": "El Beni", "FIPS_CNTRY": "BL", "CNTRY_NAME": "Bolivia", "STATUS": "Provincial capital", "POP": 0, "POP_RANK": 0, "POP_CLASS": " ", "PORT_ID": 0, "LABEL_FLAG": 0, "POP_SOURCE": " " }, "geometry": { "type": "Point", "coordinates": [ -64.902995576613506, -14.8410000665148 ] } },
{ "type": "Feature", "properties": { "FID": 95, "OBJECTID": 95, "CITY_NAME": "Cochabamba", "GMI_ADMIN": "BOL-CCH", "ADMIN_NAME": "Cochabamba", "FIPS_CNTRY": "BL", "CNTRY_NAME": "Bolivia", "STATUS": "Provincial capital", "POP": 0, "POP_RANK": 0, "POP_CLASS": " ", "PORT_ID": 0, "LABEL_FLAG": 1, "POP_SOURCE": " " }, "geometry": { "type": "Point", "coordinates": [ -66.167000638923795, -17.3840040035473 ] } },
{ "type": "Feature", "properties": { "FID": 96, "OBJECTID": 96, "CITY_NAME": "Santa Cruz de La Sierra", "GMI_ADMIN": "BOL-SCR", "ADMIN_NAME": "Santa Cruz", "FIPS_CNTRY": "BL", "CNTRY_NAME": "Bolivia", "STATUS": "Other", "POP": 2248000, "POP_RANK": 2, "POP_CLASS": "1,000,000 to 4,999,999", "PORT_ID": 0, "LABEL_FLAG": 0, "POP_SOURCE": "UN_Habitat_2020" }, "geometry": { "type": "Point", "coordinates": [ -63.197414580420997, -17.788787955512401 ] } },
{ "type": "Feature", "properties": { "FID": 97, "OBJECTID": 97, "CITY_NAME": "Oruro", "GMI_ADMIN": "BOL-ORU", "ADMIN_NAME": "Oruro", "FIPS_CNTRY": "BL", "CNTRY_NAME": "Bolivia", "STATUS": "Provincial capital", "POP": 0, "POP_RANK": 0, "POP_CLASS": " ", "PORT_ID": 0, "LABEL_FLAG": 1, "POP_SOURCE": " " }, "geometry": { "type": "Point", "coordinates": [ -67.111001675540294, -17.974997946410699 ] } },
{ "type": "Feature", "properties": { "FID": 98, "OBJECTID": 98, "CITY_NAME": "Sucre", "GMI_ADMIN": "BOL-CHQ", "ADMIN_NAME": "Chuquisaca", "FIPS_CNTRY": "BL", "CNTRY_NAME": "Bolivia", "STATUS": "Provincial capital", "POP": 0, "POP_RANK": 0, "POP_CLASS": " ", "PORT_ID": 0, "LABEL_FLAG": 0, "POP_SOURCE": " " }, "geometry": { "type": "Point", "coordinates": [ -65.256002670366698, -19.042001993899401 ] } },
{ "type": "Feature", "properties": { "FID": 99, "OBJECTID": 99, "CITY_NAME": "Potosi", "GMI_ADMIN": "BOL-POT", "ADMIN_NAME": "Potosi", "FIPS_CNTRY": "BL", "CNTRY_NAME": "Bolivia", "STATUS": "Provincial capital", "POP": 0, "POP_RANK": 0, "POP_CLASS": " ", "PORT_ID": 0, "LABEL_FLAG": 1, "POP_SOURCE": " " }, "geometry": { "type": "Point", "coordinates": [ -65.755997645567803, -19.583001006591601 ] } },
{ "type": "Feature", "properties": { "FID": 100, "OBJECTID": 100, "CITY_NAME": "Fortin Coronel Eugenia Garay", "GMI_ADMIN": "PRY-NAS", "ADMIN_NAME": "Nueva Asuncion", "FIPS_CNTRY": "PA", "CNTRY_NAME": "Paraguay", "STATUS": "Provincial capital", "POP": 0, "POP_RANK": 0, "POP_CLASS": " ", "PORT_ID": 0, "LABEL_FLAG": 0, "POP_SOURCE": " " }, "geometry": { "type": "Point", "coordinates": [ -62.204003598368203, -20.5199999331426 ] } },
{ "type": "Feature", "properties": { "FID": 101, "OBJECTID": 101, "CITY_NAME": "Tarija", "GMI_ADMIN": "BOL-TAR", "ADMIN_NAME": "Tarija", "FIPS_CNTRY": "BL", "CNTRY_NAME": "Bolivia", "STATUS": "Provincial capital", "POP": 0, "POP_RANK": 0, "POP_CLASS": " ", "PORT_ID": 0, "LABEL_FLAG": 1, "POP_SOURCE": " " }, "geometry": { "type": "Point", "coordinates": [ -64.730996660420004, -21.531996053976499 ] } },
{ "type": "Feature", "properties": { "FID": 102, "OBJECTID": 102, "CITY_NAME": "Concepcion", "GMI_ADMIN": "PRY-CNC", "ADMIN_NAME": "Concepcion", "FIPS_CNTRY": "PA", "CNTRY_NAME": "Paraguay", "STATUS": "Provincial capital", "POP": 0, "POP_RANK": 0, "POP_CLASS": " ", "PORT_ID": 0, "LABEL_FLAG": 1, "POP_SOURCE": " " }, "geometry": { "type": "Point", "coordinates": [ -57.428999590231697, -23.402996998013201 ] } },
{ "type": "Feature", "properties": { "FID": 103, "OBJECTID": 103, "CITY_NAME": "Pozo Colorado", "GMI_ADMIN": "PRY-PHA", "ADMIN_NAME": "Presidente Hayes", "FIPS_CNTRY": "PA", "CNTRY_NAME": "Paraguay", "STATUS": "Provincial capital", "POP": 0, "POP_RANK": 0, "POP_CLASS": " ", "PORT_ID": 0, "LABEL_FLAG": 0, "POP_SOURCE": " " }, "geometry": { "type": "Point", "coordinates": [ -58.851998704421497, -23.436000066072801 ] } },
{ "type": "Feature", "properties": { "FID": 104, "OBJECTID": 104, "CITY_NAME": "San Pedro", "GMI_ADMIN": "PRY-SPE", "ADMIN_NAME": "San Pedro", "FIPS_CNTRY": "PA", "CNTRY_NAME": "Paraguay", "STATUS": "Provincial capital", "POP": 0, "POP_RANK": 0, "POP_CLASS": " ", "PORT_ID": 0, "LABEL_FLAG": 1, "POP_SOURCE": " " }, "geometry": { "type": "Point", "coordinates": [ -57.077000622929297, -24.089004045656502 ] } },
{ "type": "Feature", "properties": { "FID": 105, "OBJECTID": 105, "CITY_NAME": "Asuncion", "GMI_ADMIN": "PRY-CNT", "ADMIN_NAME": "Central", "FIPS_CNTRY": "PA", "CNTRY_NAME": "Paraguay", "STATUS": "National capital", "POP": 0, "POP_RANK": 0, "POP_CLASS": " ", "PORT_ID": 0, "LABEL_FLAG": 0, "POP_SOURCE": " " }, "geometry": { "type": "Point", "coordinates": [ -57.6219955695368, -25.3050029604101 ] } },
{ "type": "Feature", "properties": { "FID": 106, "OBJECTID": 106, "CITY_NAME": "Artigas", "GMI_ADMIN": "URY-ART", "ADMIN_NAME": "Artigas", "FIPS_CNTRY": "UY", "CNTRY_NAME": "Uruguay", "STATUS": "Provincial capital", "POP": 0, "POP_RANK": 0, "POP_CLASS": " ", "PORT_ID": 0, "LABEL_FLAG": 1, "POP_SOURCE": " " }, "geometry": { "type": "Point", "coordinates": [ -56.473001650268301, -30.410001077253501 ] } },
{ "type": "Feature", "properties": { "FID": 107, "OBJECTID": 107, "CITY_NAME": "Santa Fe", "GMI_ADMIN": "ARG-SFE", "ADMIN_NAME": "Santa Fe", "FIPS_CNTRY": "AR", "CNTRY_NAME": "Argentina", "STATUS": "Provincial capital", "POP": 534204, "POP_RANK": 3, "POP_CLASS": "500,000 to 999,999", "PORT_ID": 13560, "LABEL_FLAG": 1, "POP_SOURCE": "UN_Data_2010_2020" }, "geometry": { "type": "Point", "coordinates": [ -60.697997715313797, -31.616999997725902 ] } },
{ "type": "Feature", "properties": { "FID": 108, "OBJECTID": 108, "CITY_NAME": "Parana", "GMI_ADMIN": "ARG-ERI", "ADMIN_NAME": "Entre Rios", "FIPS_CNTRY": "AR", "CNTRY_NAME": "Argentina", "STATUS": "Provincial capital", "POP": 280520, "POP_RANK": 4, "POP_CLASS": "250,000 to 499,999", "PORT_ID": 13570, "LABEL_FLAG": 0, "POP_SOURCE": "UN_Data_2010_2020" }, "geometry": { "type": "Point", "coordinates": [ -60.532001718852399, -31.730003989467001 ] } },
{ "type": "Feature", "properties": { "FID": 109, "OBJECTID": 109, "CITY_NAME": "Rosario", "GMI_ADMIN": "ARG-SFE", "ADMIN_NAME": "Santa Fe", "FIPS_CNTRY": "AR", "CNTRY_NAME": "Argentina", "STATUS": "Other", "POP": 1321765, "POP_RANK": 2, "POP_CLASS": "1,000,000 to 4,999,999", "PORT_ID": 13630, "LABEL_FLAG": 0, "POP_SOURCE": "UN_Data_2010_2020" }, "geometry": { "type": "Point", "coordinates": [ -60.663932573130403, -32.937732030941199 ] } },
{ "type": "Feature", "properties": { "FID": 110, "OBJECTID": 110, "CITY_NAME": "La Plata", "GMI_ADMIN": "ARG-BAI", "ADMIN_NAME": "Buenos Aires", "FIPS_CNTRY": "AR", "CNTRY_NAME": "Argentina", "STATUS": "Provincial capital", "POP": 895110, "POP_RANK": 3, "POP_CLASS": "500,000 to 999,999", "PORT_ID": 13770, "LABEL_FLAG": 0, "POP_SOURCE": "UN_Data_2010_2020" }, "geometry": { "type": "Point", "coordinates": [ -57.950000564661998, -34.916696996398898 ] } },
{ "type": "Feature", "properties": { "FID": 111, "OBJECTID": 111, "CITY_NAME": "San Jose De Mayo", "GMI_ADMIN": "URY-SJO", "ADMIN_NAME": "San Jose", "FIPS_CNTRY": "UY", "CNTRY_NAME": "Uruguay", "STATUS": "Provincial capital", "POP": 0, "POP_RANK": 0, "POP_CLASS": " ", "PORT_ID": 0, "LABEL_FLAG": 0, "POP_SOURCE": " " }, "geometry": { "type": "Point", "coordinates": [ -56.710997600979802, -34.354997963762997 ] } },
{ "type": "Feature", "properties": { "FID": 112, "OBJECTID": 112, "CITY_NAME": "Colonia del Sacramento", "GMI_ADMIN": "URY-COL", "ADMIN_NAME": "Colonia", "FIPS_CNTRY": "UY", "CNTRY_NAME": "Uruguay", "STATUS": "Provincial capital", "POP": 0, "POP_RANK": 0, "POP_CLASS": " ", "PORT_ID": 13140, "LABEL_FLAG": 0, "POP_SOURCE": " " }, "geometry": { "type": "Point", "coordinates": [ -57.840002583587498, -34.479999024334603 ] } },
{ "type": "Feature", "properties": { "FID": 113, "OBJECTID": 113, "CITY_NAME": "Canelones", "GMI_ADMIN": "URY-CNL", "ADMIN_NAME": "Canelones", "FIPS_CNTRY": "UY", "CNTRY_NAME": "Uruguay", "STATUS": "Provincial capital", "POP": 0, "POP_RANK": 0, "POP_CLASS": " ", "PORT_ID": 0, "LABEL_FLAG": 1, "POP_SOURCE": " " }, "geometry": { "type": "Point", "coordinates": [ -56.284001604878398, -34.538004025538498 ] } },
{ "type": "Feature", "properties": { "FID": 114, "OBJECTID": 114, "CITY_NAME": "Santa Rosa", "GMI_ADMIN": "ARG-LPA", "ADMIN_NAME": "La Pampa", "FIPS_CNTRY": "AR", "CNTRY_NAME": "Argentina", "STATUS": "Provincial capital", "POP": 127683, "POP_RANK": 5, "POP_CLASS": "100,000 to 249,999", "PORT_ID": 0, "LABEL_FLAG": 0, "POP_SOURCE": "UN_Data_2010_2020" }, "geometry": { "type": "Point", "coordinates": [ -64.287998559971896, -36.628002072358001 ] } },
{ "type": "Feature", "properties": { "FID": 115, "OBJECTID": 115, "CITY_NAME": "Bahia Blanca", "GMI_ADMIN": "ARG-BAI", "ADMIN_NAME": "Buenos Aires", "FIPS_CNTRY": "AR", "CNTRY_NAME": "Argentina", "STATUS": "Other", "POP": 314539, "POP_RANK": 4, "POP_CLASS": "250,000 to 499,999", "PORT_ID": 13815, "LABEL_FLAG": 0, "POP_SOURCE": "UN_Data_2010_2020" }, "geometry": { "type": "Point", "coordinates": [ -62.274059616075199, -38.725271967607299 ] } },
{ "type": "Feature", "properties": { "FID": 116, "OBJECTID": 116, "CITY_NAME": "Viedma", "GMI_ADMIN": "ARG-RNE", "ADMIN_NAME": "Rio Negro", "FIPS_CNTRY": "AR", "CNTRY_NAME": "Argentina", "STATUS": "Provincial capital", "POP": 0, "POP_RANK": 0, "POP_CLASS": " ", "PORT_ID": 0, "LABEL_FLAG": 0, "POP_SOURCE": " " }, "geometry": { "type": "Point", "coordinates": [ -62.995031706039903, -40.8150269189317 ] } },
{ "type": "Feature", "properties": { "FID": 117, "OBJECTID": 117, "CITY_NAME": "Rawson", "GMI_ADMIN": "ARG-CHB", "ADMIN_NAME": "Chubut", "FIPS_CNTRY": "AR", "CNTRY_NAME": "Argentina", "STATUS": "Provincial capital", "POP": 145647, "POP_RANK": 5, "POP_CLASS": "100,000 to 249,999", "PORT_ID": 0, "LABEL_FLAG": 0, "POP_SOURCE": "UN_Data_2010_2020" }, "geometry": { "type": "Point", "coordinates": [ -65.099996591435101, -43.299999046407599 ] } },
{ "type": "Feature", "properties": { "FID": 118, "OBJECTID": 118, "CITY_NAME": "Buenos Aires", "GMI_ADMIN": "ARG-DFD", "ADMIN_NAME": "Distrito Federal", "FIPS_CNTRY": "AR", "CNTRY_NAME": "Argentina", "STATUS": "National and provincial capital", "POP": 15416728, "POP_RANK": 1, "POP_CLASS": "5,000,000 and greater", "PORT_ID": 13760, "LABEL_FLAG": 1, "POP_SOURCE": "UN_Data_2010_2020" }, "geometry": { "type": "Point", "coordinates": [ -58.4498336968446, -34.622496010242997 ] } },
{ "type": "Feature", "properties": { "FID": 119, "OBJECTID": 119, "CITY_NAME": "San Salvador De Jujuy", "GMI_ADMIN": "ARG-JUJ", "ADMIN_NAME": "Jujuy", "FIPS_CNTRY": "AR", "CNTRY_NAME": "Argentina", "STATUS": "Provincial capital", "POP": 346920, "POP_RANK": 4, "POP_CLASS": "250,000 to 499,999", "PORT_ID": 0, "LABEL_FLAG": 0, "POP_SOURCE": "UN_Data_2010_2020" }, "geometry": { "type": "Point", "coordinates": [ -65.301002641772996, -24.1980030018813 ] } },
{ "type": "Feature", "properties": { "FID": 120, "OBJECTID": 120, "CITY_NAME": "Salta", "GMI_ADMIN": "ARG-SAL", "ADMIN_NAME": "Salta", "FIPS_CNTRY": "AR", "CNTRY_NAME": "Argentina", "STATUS": "Provincial capital", "POP": 636406, "POP_RANK": 3, "POP_CLASS": "500,000 to 999,999", "PORT_ID": 0, "LABEL_FLAG": 1, "POP_SOURCE": "UN_Data_2010_2020" }, "geometry": { "type": "Point", "coordinates": [ -65.408003713781994, -24.788996944744699 ] } },
{ "type": "Feature", "properties": { "FID": 121, "OBJECTID": 121, "CITY_NAME": "San Miguel De Tucuman", "GMI_ADMIN": "ARG-TCM", "ADMIN_NAME": "Tucuman", "FIPS_CNTRY": "AR", "CNTRY_NAME": "Argentina", "STATUS": "Provincial capital", "POP": 900677, "POP_RANK": 3, "POP_CLASS": "500,000 to 999,999", "PORT_ID": 0, "LABEL_FLAG": 0, "POP_SOURCE": "UN_Data_2010_2020" }, "geometry": { "type": "Point", "coordinates": [ -65.213999608026, -26.829000061393 ] } },
{ "type": "Feature", "properties": { "FID": 122, "OBJECTID": 122, "CITY_NAME": "Santiago Del Estero", "GMI_ADMIN": "ARG-SDE", "ADMIN_NAME": "Santiago del Estero", "FIPS_CNTRY": "AR", "CNTRY_NAME": "Argentina", "STATUS": "Provincial capital", "POP": 402436, "POP_RANK": 4, "POP_CLASS": "250,000 to 499,999", "PORT_ID": 0, "LABEL_FLAG": 0, "POP_SOURCE": "UN_Data_2010_2020" }, "geometry": { "type": "Point", "coordinates": [ -64.268999712043396, -27.7900020617225 ] } },
{ "type": "Feature", "properties": { "FID": 123, "OBJECTID": 123, "CITY_NAME": "Catamarca", "GMI_ADMIN": "ARG-CTM", "ADMIN_NAME": "Catamarca", "FIPS_CNTRY": "AR", "CNTRY_NAME": "Argentina", "STATUS": "Provincial capital", "POP": 222984, "POP_RANK": 5, "POP_CLASS": "100,000 to 249,999", "PORT_ID": 0, "LABEL_FLAG": 1, "POP_SOURCE": "UN_Data_2010_2020" }, "geometry": { "type": "Point", "coordinates": [ -65.780999578712297, -28.4660009886334 ] } },
{ "type": "Feature", "properties": { "FID": 124, "OBJECTID": 124, "CITY_NAME": "La Rioja", "GMI_ADMIN": "ARG-LRI", "ADMIN_NAME": "La Rioja", "FIPS_CNTRY": "AR", "CNTRY_NAME": "Argentina", "STATUS": "Provincial capital", "POP": 222155, "POP_RANK": 5, "POP_CLASS": "100,000 to 249,999", "PORT_ID": 0, "LABEL_FLAG": 1, "POP_SOURCE": "UN_Data_2010_2020" }, "geometry": { "type": "Point", "coordinates": [ -66.854996634665198, -29.4129989343155 ] } },
{ "type": "Feature", "properties": { "FID": 125, "OBJECTID": 125, "CITY_NAME": "Cordoba", "GMI_ADMIN": "ARG-CRD", "ADMIN_NAME": "Cordoba", "FIPS_CNTRY": "AR", "CNTRY_NAME": "Argentina", "STATUS": "Provincial capital", "POP": 1563702, "POP_RANK": 2, "POP_CLASS": "1,000,000 to 4,999,999", "PORT_ID": 0, "LABEL_FLAG": 1, "POP_SOURCE": "UN_Data_2010_2020" }, "geometry": { "type": "Point", "coordinates": [ -64.179998628596906, -31.316003921562 ] } },
{ "type": "Feature", "properties": { "FID": 126, "OBJECTID": 126, "CITY_NAME": "San Luis", "GMI_ADMIN": "ARG-SLU", "ADMIN_NAME": "San Luis", "FIPS_CNTRY": "AR", "CNTRY_NAME": "Argentina", "STATUS": "Provincial capital", "POP": 235975, "POP_RANK": 5, "POP_CLASS": "100,000 to 249,999", "PORT_ID": 0, "LABEL_FLAG": 1, "POP_SOURCE": "UN_Data_2010_2020" }, "geometry": { "type": "Point", "coordinates": [ -66.347999714882206, -33.316002025569098 ] } },
{ "type": "Feature", "properties": { "FID": 127, "OBJECTID": 127, "CITY_NAME": "Caacupe", "GMI_ADMIN": "PRY-CRD", "ADMIN_NAME": "Cordillera", "FIPS_CNTRY": "PA", "CNTRY_NAME": "Paraguay", "STATUS": "Provincial capital", "POP": 0, "POP_RANK": 0, "POP_CLASS": " ", "PORT_ID": 0, "LABEL_FLAG": 0, "POP_SOURCE": " " }, "geometry": { "type": "Point", "coordinates": [ -57.140000582898097, -25.387001933791101 ] } },
{ "type": "Feature", "properties": { "FID": 128, "OBJECTID": 128, "CITY_NAME": "Coronel Oviedo", "GMI_ADMIN": "PRY-CAA", "ADMIN_NAME": "Caaguazu", "FIPS_CNTRY": "PA", "CNTRY_NAME": "Paraguay", "STATUS": "Provincial capital", "POP": 0, "POP_RANK": 0, "POP_CLASS": " ", "PORT_ID": 0, "LABEL_FLAG": 0, "POP_SOURCE": " " }, "geometry": { "type": "Point", "coordinates": [ -56.428001678862103, -25.452998968308901 ] } },
{ "type": "Feature", "properties": { "FID": 129, "OBJECTID": 129, "CITY_NAME": "Paraguari", "GMI_ADMIN": "PRY-PRG", "ADMIN_NAME": "Paraguari", "FIPS_CNTRY": "PA", "CNTRY_NAME": "Paraguay", "STATUS": "Provincial capital", "POP": 0, "POP_RANK": 0, "POP_CLASS": " ", "PORT_ID": 0, "LABEL_FLAG": 1, "POP_SOURCE": " " }, "geometry": { "type": "Point", "coordinates": [ -57.150998626878803, -25.623999025136499 ] } },
{ "type": "Feature", "properties": { "FID": 130, "OBJECTID": 130, "CITY_NAME": "Villarrica", "GMI_ADMIN": "PRY-GUA", "ADMIN_NAME": "Guaira", "FIPS_CNTRY": "PA", "CNTRY_NAME": "Paraguay", "STATUS": "Provincial capital", "POP": 0, "POP_RANK": 0, "POP_CLASS": " ", "PORT_ID": 0, "LABEL_FLAG": 0, "POP_SOURCE": " " }, "geometry": { "type": "Point", "coordinates": [ -56.4509966261895, -25.784001037983199 ] } },
{ "type": "Feature", "properties": { "FID": 131, "OBJECTID": 131, "CITY_NAME": "Formosa", "GMI_ADMIN": "ARG-FRM", "ADMIN_NAME": "Formosa", "FIPS_CNTRY": "AR", "CNTRY_NAME": "Argentina", "STATUS": "Provincial capital", "POP": 252791, "POP_RANK": 4, "POP_CLASS": "250,000 to 499,999", "PORT_ID": 13340, "LABEL_FLAG": 1, "POP_SOURCE": "UN_Data_2010_2020" }, "geometry": { "type": "Point", "coordinates": [ -58.176998636876398, -26.1829980263912 ] } },
{ "type": "Feature", "properties": { "FID": 132, "OBJECTID": 132, "CITY_NAME": "Pilar", "GMI_ADMIN": "PRY-NMB", "ADMIN_NAME": "Neembucu", "FIPS_CNTRY": "PA", "CNTRY_NAME": "Paraguay", "STATUS": "Provincial capital", "POP": 0, "POP_RANK": 0, "POP_CLASS": " ", "PORT_ID": 0, "LABEL_FLAG": 0, "POP_SOURCE": " " }, "geometry": { "type": "Point", "coordinates": [ -58.295996612232102, -26.867996947583499 ] } },
{ "type": "Feature", "properties": { "FID": 133, "OBJECTID": 133, "CITY_NAME": "Resistencia", "GMI_ADMIN": "ARG-CHA", "ADMIN_NAME": "Chaco", "FIPS_CNTRY": "AR", "CNTRY_NAME": "Argentina", "STATUS": "Provincial capital", "POP": 414226, "POP_RANK": 4, "POP_CLASS": "250,000 to 499,999", "PORT_ID": 13380, "LABEL_FLAG": 0, "POP_SOURCE": "UN_Data_2010_2020" }, "geometry": { "type": "Point", "coordinates": [ -58.9869986186403, -27.4570019423488 ] } },
{ "type": "Feature", "properties": { "FID": 134, "OBJECTID": 134, "CITY_NAME": "Corrientes", "GMI_ADMIN": "ARG-CRR", "ADMIN_NAME": "Corrientes", "FIPS_CNTRY": "AR", "CNTRY_NAME": "Argentina", "STATUS": "Provincial capital", "POP": 379978, "POP_RANK": 4, "POP_CLASS": "250,000 to 499,999", "PORT_ID": 13370, "LABEL_FLAG": 1, "POP_SOURCE": "UN_Data_2010_2020" }, "geometry": { "type": "Point", "coordinates": [ -58.8179966115122, -27.486998999741601 ] } },
{ "type": "Feature", "properties": { "FID": 135, "OBJECTID": 135, "CITY_NAME": "Ypacarai", "GMI_ADMIN": "PRY-CNT", "ADMIN_NAME": "Central", "FIPS_CNTRY": "PA", "CNTRY_NAME": "Paraguay", "STATUS": "Provincial capital", "POP": 0, "POP_RANK": 0, "POP_CLASS": " ", "PORT_ID": 0, "LABEL_FLAG": 0, "POP_SOURCE": " " }, "geometry": { "type": "Point", "coordinates": [ -57.283001632032203, -25.406000947203299 ] } },
{ "type": "Feature", "properties": { "FID": 136, "OBJECTID": 136, "CITY_NAME": "Caazapa", "GMI_ADMIN": "PRY-CAZ", "ADMIN_NAME": "Caazapa", "FIPS_CNTRY": "PA", "CNTRY_NAME": "Paraguay", "STATUS": "Provincial capital", "POP": 0, "POP_RANK": 0, "POP_CLASS": " ", "PORT_ID": 0, "LABEL_FLAG": 1, "POP_SOURCE": " " }, "geometry": { "type": "Point", "coordinates": [ -56.367998627958798, -26.199998990104 ] } },
{ "type": "Feature", "properties": { "FID": 137, "OBJECTID": 137, "CITY_NAME": "San Juan Bautista", "GMI_ADMIN": "PRY-MSN", "ADMIN_NAME": "Misiones", "FIPS_CNTRY": "PA", "CNTRY_NAME": "Paraguay", "STATUS": "Provincial capital", "POP": 0, "POP_RANK": 0, "POP_CLASS": " ", "PORT_ID": 0, "LABEL_FLAG": 0, "POP_SOURCE": " " }, "geometry": { "type": "Point", "coordinates": [ -57.147002692963703, -26.673002918578899 ] } },
{ "type": "Feature", "properties": { "FID": 138, "OBJECTID": 138, "CITY_NAME": "Salto", "GMI_ADMIN": "URY-SAL", "ADMIN_NAME": "Salto", "FIPS_CNTRY": "UY", "CNTRY_NAME": "Uruguay", "STATUS": "Provincial capital", "POP": 0, "POP_RANK": 0, "POP_CLASS": " ", "PORT_ID": 13180, "LABEL_FLAG": 1, "POP_SOURCE": " " }, "geometry": { "type": "Point", "coordinates": [ -57.962996658342, -31.395996074609702 ] } },
{ "type": "Feature", "properties": { "FID": 139, "OBJECTID": 139, "CITY_NAME": "Paysandu", "GMI_ADMIN": "URY-PYS", "ADMIN_NAME": "Paysandu", "FIPS_CNTRY": "UY", "CNTRY_NAME": "Uruguay", "STATUS": "Provincial capital", "POP": 0, "POP_RANK": 0, "POP_CLASS": " ", "PORT_ID": 13170, "LABEL_FLAG": 1, "POP_SOURCE": " " }, "geometry": { "type": "Point", "coordinates": [ -58.079996583998302, -32.331995976311099 ] } },
{ "type": "Feature", "properties": { "FID": 140, "OBJECTID": 140, "CITY_NAME": "Fray Bentos", "GMI_ADMIN": "URY-RNE", "ADMIN_NAME": "Rio Negro", "FIPS_CNTRY": "UY", "CNTRY_NAME": "Uruguay", "STATUS": "Provincial capital", "POP": 0, "POP_RANK": 0, "POP_CLASS": " ", "PORT_ID": 13160, "LABEL_FLAG": 0, "POP_SOURCE": " " }, "geometry": { "type": "Point", "coordinates": [ -58.303997581663602, -33.138999049009499 ] } },
{ "type": "Feature", "properties": { "FID": 141, "OBJECTID": 141, "CITY_NAME": "Mercedes", "GMI_ADMIN": "URY-SOR", "ADMIN_NAME": "Soriano", "FIPS_CNTRY": "UY", "CNTRY_NAME": "Uruguay", "STATUS": "Provincial capital", "POP": 0, "POP_RANK": 0, "POP_CLASS": " ", "PORT_ID": 0, "LABEL_FLAG": 0, "POP_SOURCE": " " }, "geometry": { "type": "Point", "coordinates": [ -58.0149985743302, -33.278003998744602 ] } },
{ "type": "Feature", "properties": { "FID": 142, "OBJECTID": 142, "CITY_NAME": "Durazno", "GMI_ADMIN": "URY-DRZ", "ADMIN_NAME": "Durazno", "FIPS_CNTRY": "UY", "CNTRY_NAME": "Uruguay", "STATUS": "Provincial capital", "POP": 0, "POP_RANK": 0, "POP_CLASS": " ", "PORT_ID": 0, "LABEL_FLAG": 1, "POP_SOURCE": " " }, "geometry": { "type": "Point", "coordinates": [ -56.5100006522431, -33.417000012362301 ] } },
{ "type": "Feature", "properties": { "FID": 143, "OBJECTID": 143, "CITY_NAME": "Trinidad", "GMI_ADMIN": "URY-FLR", "ADMIN_NAME": "Flores", "FIPS_CNTRY": "UY", "CNTRY_NAME": "Uruguay", "STATUS": "Provincial capital", "POP": 0, "POP_RANK": 0, "POP_CLASS": " ", "PORT_ID": 0, "LABEL_FLAG": 0, "POP_SOURCE": " " }, "geometry": { "type": "Point", "coordinates": [ -56.900996671219403, -33.543998957149597 ] } },
{ "type": "Feature", "properties": { "FID": 144, "OBJECTID": 144, "CITY_NAME": "Sao Paulo", "GMI_ADMIN": "BRA-SPA", "ADMIN_NAME": "Sao Paulo", "FIPS_CNTRY": "BR", "CNTRY_NAME": "Brazil", "STATUS": "Provincial capital", "POP": 11152968, "POP_RANK": 1, "POP_CLASS": "5,000,000 and greater", "PORT_ID": 0, "LABEL_FLAG": 1, "POP_SOURCE": "UN_Data_2010_2020" }, "geometry": { "type": "Point", "coordinates": [ -46.622996582681402, -23.580998999422601 ] } },
{ "type": "Feature", "properties": { "FID": 145, "OBJECTID": 145, "CITY_NAME": "Santos", "GMI_ADMIN": "BRA-SPA", "ADMIN_NAME": "Sao Paulo", "FIPS_CNTRY": "BR", "CNTRY_NAME": "Brazil", "STATUS": "Other", "POP": 419086, "POP_RANK": 4, "POP_CLASS": "250,000 to 499,999", "PORT_ID": 12970, "LABEL_FLAG": 0, "POP_SOURCE": "UN_Data_2010_2020" }, "geometry": { "type": "Point", "coordinates": [ -46.309490603827697, -23.954697011518199 ] } },
{ "type": "Feature", "properties": { "FID": 146, "OBJECTID": 146, "CITY_NAME": "Curitiba", "GMI_ADMIN": "BRA-PAN", "ADMIN_NAME": "Parana", "FIPS_CNTRY": "BR", "CNTRY_NAME": "Brazil", "STATUS": "Provincial capital", "POP": 1751907, "POP_RANK": 2, "POP_CLASS": "1,000,000 to 4,999,999", "PORT_ID": 0, "LABEL_FLAG": 0, "POP_SOURCE": "UN_Data_2010_2020" }, "geometry": { "type": "Point", "coordinates": [ -49.2849986605532, -25.430004020981599 ] } },
{ "type": "Feature", "properties": { "FID": 147, "OBJECTID": 147, "CITY_NAME": "Florianopolis", "GMI_ADMIN": "BRA-SCT", "ADMIN_NAME": "Santa Catarina", "FIPS_CNTRY": "BR", "CNTRY_NAME": "Brazil", "STATUS": "Provincial capital", "POP": 405189, "POP_RANK": 4, "POP_CLASS": "250,000 to 499,999", "PORT_ID": 13030, "LABEL_FLAG": 0, "POP_SOURCE": "UN_Data_2010_2020" }, "geometry": { "type": "Point", "coordinates": [ -48.618998587289497, -27.5759999177045 ] } },
{ "type": "Feature", "properties": { "FID": 148, "OBJECTID": 148, "CITY_NAME": "Porto Alegre", "GMI_ADMIN": "BRA-RGS", "ADMIN_NAME": "Rio Grande do Sul", "FIPS_CNTRY": "BR", "CNTRY_NAME": "Brazil", "STATUS": "Provincial capital", "POP": 1409351, "POP_RANK": 2, "POP_CLASS": "1,000,000 to 4,999,999", "PORT_ID": 13080, "LABEL_FLAG": 0, "POP_SOURCE": "UN_Data_2010_2020" }, "geometry": { "type": "Point", "coordinates": [ -51.208001686061699, -30.040001955905201 ] } },
{ "type": "Feature", "properties": { "FID": 149, "OBJECTID": 149, "CITY_NAME": "Rivera", "GMI_ADMIN": "URY-RIV", "ADMIN_NAME": "Rivera", "FIPS_CNTRY": "UY", "CNTRY_NAME": "Uruguay", "STATUS": "Provincial capital", "POP": 0, "POP_RANK": 0, "POP_CLASS": " ", "PORT_ID": 0, "LABEL_FLAG": 1, "POP_SOURCE": " " }, "geometry": { "type": "Point", "coordinates": [ -55.529036689089402, -30.887406043641001 ] } },
{ "type": "Feature", "properties": { "FID": 150, "OBJECTID": 150, "CITY_NAME": "Tacuarembo", "GMI_ADMIN": "URY-TCR", "ADMIN_NAME": "Tacuarembo", "FIPS_CNTRY": "UY", "CNTRY_NAME": "Uruguay", "STATUS": "Provincial capital", "POP": 0, "POP_RANK": 0, "POP_CLASS": " ", "PORT_ID": 0, "LABEL_FLAG": 1, "POP_SOURCE": " " }, "geometry": { "type": "Point", "coordinates": [ -55.982996592596997, -31.705002056322702 ] } },
{ "type": "Feature", "properties": { "FID": 151, "OBJECTID": 151, "CITY_NAME": "Melo", "GMI_ADMIN": "URY-CLA", "ADMIN_NAME": "Cerro Largo", "FIPS_CNTRY": "UY", "CNTRY_NAME": "Uruguay", "STATUS": "Provincial capital", "POP": 0, "POP_RANK": 0, "POP_CLASS": " ", "PORT_ID": 0, "LABEL_FLAG": 0, "POP_SOURCE": " " }, "geometry": { "type": "Point", "coordinates": [ -54.177002594346, -32.363000994671303 ] } },
{ "type": "Feature", "properties": { "FID": 152, "OBJECTID": 152, "CITY_NAME": "Treinta Y Tres", "GMI_ADMIN": "URY-TYT", "ADMIN_NAME": "Treinta y Tres", "FIPS_CNTRY": "UY", "CNTRY_NAME": "Uruguay", "STATUS": "Provincial capital", "POP": 0, "POP_RANK": 0, "POP_CLASS": " ", "PORT_ID": 0, "LABEL_FLAG": 0, "POP_SOURCE": " " }, "geometry": { "type": "Point", "coordinates": [ -54.3750026340172, -33.230997041521398 ] } },
{ "type": "Feature", "properties": { "FID": 153, "OBJECTID": 153, "CITY_NAME": "Florida", "GMI_ADMIN": "URY-FLD", "ADMIN_NAME": "Florida", "FIPS_CNTRY": "UY", "CNTRY_NAME": "Uruguay", "STATUS": "Provincial capital", "POP": 0, "POP_RANK": 0, "POP_CLASS": " ", "PORT_ID": 0, "LABEL_FLAG": 1, "POP_SOURCE": " " }, "geometry": { "type": "Point", "coordinates": [ -56.214998559693903, -34.099002024489103 ] } },
{ "type": "Feature", "properties": { "FID": 154, "OBJECTID": 154, "CITY_NAME": "Minas", "GMI_ADMIN": "URY-LVL", "ADMIN_NAME": "Lavalleja", "FIPS_CNTRY": "UY", "CNTRY_NAME": "Uruguay", "STATUS": "Provincial capital", "POP": 0, "POP_RANK": 0, "POP_CLASS": " ", "PORT_ID": 0, "LABEL_FLAG": 0, "POP_SOURCE": " " }, "geometry": { "type": "Point", "coordinates": [ -55.226996576520698, -34.374996002025 ] } },
{ "type": "Feature", "properties": { "FID": 155, "OBJECTID": 155, "CITY_NAME": "Rocha", "GMI_ADMIN": "URY-ROC", "ADMIN_NAME": "Rocha", "FIPS_CNTRY": "UY", "CNTRY_NAME": "Uruguay", "STATUS": "Provincial capital", "POP": 0, "POP_RANK": 0, "POP_CLASS": " ", "PORT_ID": 0, "LABEL_FLAG": 1, "POP_SOURCE": " " }, "geometry": { "type": "Point", "coordinates": [ -54.325997627094601, -34.496999988047399 ] } },
{ "type": "Feature", "properties": { "FID": 156, "OBJECTID": 156, "CITY_NAME": "Maldonado", "GMI_ADMIN": "URY-MLD", "ADMIN_NAME": "Maldonado", "FIPS_CNTRY": "UY", "CNTRY_NAME": "Uruguay", "STATUS": "Provincial capital", "POP": 0, "POP_RANK": 0, "POP_CLASS": " ", "PORT_ID": 0, "LABEL_FLAG": 1, "POP_SOURCE": " " }, "geometry": { "type": "Point", "coordinates": [ -54.947996588318198, -34.912997940168097 ] } },
{ "type": "Feature", "properties": { "FID": 157, "OBJECTID": 157, "CITY_NAME": "Montevideo", "GMI_ADMIN": "URY-MNT", "ADMIN_NAME": "Montevideo", "FIPS_CNTRY": "UY", "CNTRY_NAME": "Uruguay", "STATUS": "National and provincial capital", "POP": 1383135, "POP_RANK": 2, "POP_CLASS": "1,000,000 to 4,999,999", "PORT_ID": 13120, "LABEL_FLAG": 1, "POP_SOURCE": "UN_Data_2010_2020" }, "geometry": { "type": "Point", "coordinates": [ -56.169998588287498, -34.920000050233597 ] } },
{ "type": "Feature", "properties": { "FID": 158, "OBJECTID": 158, "CITY_NAME": "Salvador", "GMI_ADMIN": "BRA-BAH", "ADMIN_NAME": "Bahia", "FIPS_CNTRY": "BR", "CNTRY_NAME": "Brazil", "STATUS": "Provincial capital", "POP": 2674923, "POP_RANK": 2, "POP_CLASS": "1,000,000 to 4,999,999", "PORT_ID": 12770, "LABEL_FLAG": 0, "POP_SOURCE": "UN_Data_2010_2020" }, "geometry": { "type": "Point", "coordinates": [ -38.481002638819902, -12.993003005923001 ] } },
{ "type": "Feature", "properties": { "FID": 159, "OBJECTID": 159, "CITY_NAME": "Jamestown", "GMI_ADMIN": "SHN", "ADMIN_NAME": "St. Helena", "FIPS_CNTRY": "SH", "CNTRY_NAME": "St. Helena", "STATUS": "National and provincial capital", "POP": 0, "POP_RANK": 0, "POP_CLASS": " ", "PORT_ID": 46690, "LABEL_FLAG": 0, "POP_SOURCE": " " }, "geometry": { "type": "Point", "coordinates": [ -5.7050006652521, -15.9219990670495 ] } },
{ "type": "Feature", "properties": { "FID": 160, "OBJECTID": 160, "CITY_NAME": "Belo Horizonte", "GMI_ADMIN": "BRA-MGE", "ADMIN_NAME": "Minas Gerais", "FIPS_CNTRY": "BR", "CNTRY_NAME": "Brazil", "STATUS": "Provincial capital", "POP": 2375151, "POP_RANK": 2, "POP_CLASS": "1,000,000 to 4,999,999", "PORT_ID": 0, "LABEL_FLAG": 0, "POP_SOURCE": "UN_Data_2010_2020" }, "geometry": { "type": "Point", "coordinates": [ -43.9090016904225, -19.8520019756631 ] } },
{ "type": "Feature", "properties": { "FID": 161, "OBJECTID": 161, "CITY_NAME": "Vitoria", "GMI_ADMIN": "BRA-ESA", "ADMIN_NAME": "Espirito Santo", "FIPS_CNTRY": "BR", "CNTRY_NAME": "Brazil", "STATUS": "Provincial capital", "POP": 327801, "POP_RANK": 4, "POP_CLASS": "250,000 to 499,999", "PORT_ID": 12850, "LABEL_FLAG": 0, "POP_SOURCE": "UN_Data_2010_2020" }, "geometry": { "type": "Point", "coordinates": [ -40.413995581858103, -20.332997937451999 ] } },
{ "type": "Feature", "properties": { "FID": 162, "OBJECTID": 162, "CITY_NAME": "Rio de Janeiro", "GMI_ADMIN": "BRA-RDJ", "ADMIN_NAME": "Rio de Janeiro", "FIPS_CNTRY": "BR", "CNTRY_NAME": "Brazil", "STATUS": "Other", "POP": 6320446, "POP_RANK": 1, "POP_CLASS": "5,000,000 and greater", "PORT_ID": 12920, "LABEL_FLAG": 1, "POP_SOURCE": "UN_Data_2010_2020" }, "geometry": { "type": "Point", "coordinates": [ -43.455185592214796, -22.721571034503501 ] } },
{ "type": "Feature", "properties": { "FID": 163, "OBJECTID": 163, "CITY_NAME": "Niteroi", "GMI_ADMIN": "BRA-RDJ", "ADMIN_NAME": "Rio de Janeiro", "FIPS_CNTRY": "BR", "CNTRY_NAME": "Brazil", "STATUS": "Provincial capital", "POP": 487562, "POP_RANK": 4, "POP_CLASS": "250,000 to 499,999", "PORT_ID": 12930, "LABEL_FLAG": 0, "POP_SOURCE": "UN_Data_2010_2020" }, "geometry": { "type": "Point", "coordinates": [ -42.881003630725601, -22.839003037993599 ] } },
{ "type": "Feature", "properties": { "FID": 164, "OBJECTID": 164, "CITY_NAME": "Sao Luis", "GMI_ADMIN": "BRA-MRN", "ADMIN_NAME": "Maranhao", "FIPS_CNTRY": "BR", "CNTRY_NAME": "Brazil", "STATUS": "Provincial capital", "POP": 958545, "POP_RANK": 3, "POP_CLASS": "500,000 to 999,999", "PORT_ID": 12590, "LABEL_FLAG": 0, "POP_SOURCE": "UN_Data_2010_2020" }, "geometry": { "type": "Point", "coordinates": [ -44.300996568764802, -2.51499605738019 ] } },
{ "type": "Feature", "properties": { "FID": 165, "OBJECTID": 165, "CITY_NAME": "Fortaleza", "GMI_ADMIN": "BRA-CEA", "ADMIN_NAME": "Ceara", "FIPS_CNTRY": "BR", "CNTRY_NAME": "Brazil", "STATUS": "Provincial capital", "POP": 2452185, "POP_RANK": 2, "POP_CLASS": "1,000,000 to 4,999,999", "PORT_ID": 12650, "LABEL_FLAG": 0, "POP_SOURCE": "UN_Data_2010_2020" }, "geometry": { "type": "Point", "coordinates": [ -38.589002570194999, -3.78299705360564 ] } },
{ "type": "Feature", "properties": { "FID": 166, "OBJECTID": 166, "CITY_NAME": "Teresina", "GMI_ADMIN": "BRA-PIA", "ADMIN_NAME": "Piaui", "FIPS_CNTRY": "BR", "CNTRY_NAME": "Brazil", "STATUS": "Provincial capital", "POP": 767559, "POP_RANK": 3, "POP_CLASS": "500,000 to 999,999", "PORT_ID": 0, "LABEL_FLAG": 0, "POP_SOURCE": "UN_Data_2010_2020" }, "geometry": { "type": "Point", "coordinates": [ -42.802001566409999, -5.10499801551852 ] } },
{ "type": "Feature", "properties": { "FID": 167, "OBJECTID": 167, "CITY_NAME": "Natal", "GMI_ADMIN": "BRA-RGN", "ADMIN_NAME": "Rio Grande do Norte", "FIPS_CNTRY": "BR", "CNTRY_NAME": "Brazil", "STATUS": "Provincial capital", "POP": 803739, "POP_RANK": 3, "POP_CLASS": "500,000 to 999,999", "PORT_ID": 12690, "LABEL_FLAG": 0, "POP_SOURCE": "UN_Data_2010_2020" }, "geometry": { "type": "Point", "coordinates": [ -35.210996718254201, -5.80599904105754 ] } },
{ "type": "Feature", "properties": { "FID": 168, "OBJECTID": 168, "CITY_NAME": "Joao Pessoa", "GMI_ADMIN": "BRA-PAA", "ADMIN_NAME": "Paraiba", "FIPS_CNTRY": "BR", "CNTRY_NAME": "Brazil", "STATUS": "Provincial capital", "POP": 720954, "POP_RANK": 3, "POP_CLASS": "500,000 to 999,999", "PORT_ID": 0, "LABEL_FLAG": 0, "POP_SOURCE": "UN_Data_2010_2020" }, "geometry": { "type": "Point", "coordinates": [ -34.866998554899901, -7.12999805266981 ] } },
{ "type": "Feature", "properties": { "FID": 169, "OBJECTID": 169, "CITY_NAME": "Recife", "GMI_ADMIN": "BRA-PRN", "ADMIN_NAME": "Pernambuco", "FIPS_CNTRY": "BR", "CNTRY_NAME": "Brazil", "STATUS": "Provincial capital", "POP": 1537704, "POP_RANK": 2, "POP_CLASS": "1,000,000 to 4,999,999", "PORT_ID": 12730, "LABEL_FLAG": 0, "POP_SOURCE": "UN_Data_2010_2020" }, "geometry": { "type": "Point", "coordinates": [ -34.914995600855299, -8.084996967783409 ] } },
{ "type": "Feature", "properties": { "FID": 170, "OBJECTID": 170, "CITY_NAME": "Maceio", "GMI_ADMIN": "BRA-ALG", "ADMIN_NAME": "Alagoas", "FIPS_CNTRY": "BR", "CNTRY_NAME": "Brazil", "STATUS": "Provincial capital", "POP": 932078, "POP_RANK": 3, "POP_CLASS": "500,000 to 999,999", "PORT_ID": 12750, "LABEL_FLAG": 0, "POP_SOURCE": "UN_Data_2010_2020" }, "geometry": { "type": "Point", "coordinates": [ -35.747720626098499, -9.676890028271879 ] } },
{ "type": "Feature", "properties": { "FID": 171, "OBJECTID": 171, "CITY_NAME": "Aracaju", "GMI_ADMIN": "BRA-SRG", "ADMIN_NAME": "Sergipe", "FIPS_CNTRY": "BR", "CNTRY_NAME": "Brazil", "STATUS": "Provincial capital", "POP": 571149, "POP_RANK": 3, "POP_CLASS": "500,000 to 999,999", "PORT_ID": 12760, "LABEL_FLAG": 0, "POP_SOURCE": "UN_Data_2010_2020" }, "geometry": { "type": "Point", "coordinates": [ -37.060001574329497, -10.910996992417299 ] } },
{ "type": "Feature", "properties": { "FID": 172, "OBJECTID": 172, "CITY_NAME": "Galveston", "GMI_ADMIN": "USA-TEX", "ADMIN_NAME": "Texas", "FIPS_CNTRY": "US", "CNTRY_NAME": "United States", "STATUS": "Other", "POP": 50446, "POP_RANK": 6, "POP_CLASS": "50,000 to 99,999", "PORT_ID": 9150, "LABEL_FLAG": 0, "POP_SOURCE": "US_Census_2019" }, "geometry": { "type": "Point", "coordinates": [ -94.783301600282499, 29.3166990657691 ] } },
{ "type": "Feature", "properties": { "FID": 173, "OBJECTID": 173, "CITY_NAME": "Yellowknife", "GMI_ADMIN": "CAN-NTR", "ADMIN_NAME": "Northwest Territories", "FIPS_CNTRY": "CA", "CNTRY_NAME": "Canada", "STATUS": "Provincial capital", "POP": 0, "POP_RANK": 0, "POP_CLASS": " ", "PORT_ID": 0, "LABEL_FLAG": 0, "POP_SOURCE": " " }, "geometry": { "type": "Point", "coordinates": [ -114.351002585534005, 62.456004029905401 ] } },
{ "type": "Feature", "properties": { "FID": 174, "OBJECTID": 174, "CITY_NAME": "Juneau", "GMI_ADMIN": "USA-ALK", "ADMIN_NAME": "Alaska", "FIPS_CNTRY": "US", "CNTRY_NAME": "United States", "STATUS": "Provincial capital", "POP": 31974, "POP_RANK": 7, "POP_CLASS": "Less than 50,000", "PORT_ID": 19580, "LABEL_FLAG": 0, "POP_SOURCE": "US_Census_2019" }, "geometry": { "type": "Point", "coordinates": [ -134.404010712860014, 58.302998982992499 ] } },
{ "type": "Feature", "properties": { "FID": 175, "OBJECTID": 175, "CITY_NAME": "Jackson", "GMI_ADMIN": "USA-MSP", "ADMIN_NAME": "Mississippi", "FIPS_CNTRY": "US", "CNTRY_NAME": "United States", "STATUS": "Provincial capital", "POP": 4642, "POP_RANK": 7, "POP_CLASS": "Less than 50,000", "PORT_ID": 5090, "LABEL_FLAG": 0, "POP_SOURCE": "US_Census_2019" }, "geometry": { "type": "Point", "coordinates": [ -90.203003679583801, 32.318999919797399 ] } },
{ "type": "Feature", "properties": { "FID": 176, "OBJECTID": 176, "CITY_NAME": "Baton Rouge", "GMI_ADMIN": "USA-LOU", "ADMIN_NAME": "Louisiana", "FIPS_CNTRY": "US", "CNTRY_NAME": "United States", "STATUS": "Provincial capital", "POP": 220236, "POP_RANK": 5, "POP_CLASS": "100,000 to 249,999", "PORT_ID": 8970, "LABEL_FLAG": 0, "POP_SOURCE": "US_Census_2019" }, "geometry": { "type": "Point", "coordinates": [ -91.152998699814901, 30.464999939473401 ] } },
{ "type": "Feature", "properties": { "FID": 177, "OBJECTID": 177, "CITY_NAME": "New Orleans", "GMI_ADMIN": "USA-LOU", "ADMIN_NAME": "Louisiana", "FIPS_CNTRY": "US", "CNTRY_NAME": "United States", "STATUS": "Other", "POP": 390144, "POP_RANK": 4, "POP_CLASS": "250,000 to 499,999", "PORT_ID": 8860, "LABEL_FLAG": 0, "POP_SOURCE": "US_Census_2019" }, "geometry": { "type": "Point", "coordinates": [ -90.098693702838304, 29.956382934668301 ] } },
{ "type": "Feature", "properties": { "FID": 178, "OBJECTID": 178, "CITY_NAME": "Houston", "GMI_ADMIN": "USA-TEX", "ADMIN_NAME": "Texas", "FIPS_CNTRY": "US", "CNTRY_NAME": "United States", "STATUS": "Other", "POP": 2320268, "POP_RANK": 2, "POP_CLASS": "1,000,000 to 4,999,999", "PORT_ID": 9240, "LABEL_FLAG": 0, "POP_SOURCE": "US_Census_2019" }, "geometry": { "type": "Point", "coordinates": [ -95.407109628866706, 29.7718289387462 ] } },
{ "type": "Feature", "properties": { "FID": 179, "OBJECTID": 179, "CITY_NAME": "Fairbanks", "GMI_ADMIN": "USA-ALK", "ADMIN_NAME": "Alaska", "FIPS_CNTRY": "US", "CNTRY_NAME": "United States", "STATUS": "Other", "POP": 30917, "POP_RANK": 7, "POP_CLASS": "Less than 50,000", "PORT_ID": 0, "LABEL_FLAG": 0, "POP_SOURCE": "US_Census_2019" }, "geometry": { "type": "Point", "coordinates": [ -147.651182654302005, 64.838744986360993 ] } },
{ "type": "Feature", "properties": { "FID": 180, "OBJECTID": 180, "CITY_NAME": "Nome", "GMI_ADMIN": "USA-ALK", "ADMIN_NAME": "Alaska", "FIPS_CNTRY": "US", "CNTRY_NAME": "United States", "STATUS": "Other", "POP": 3870, "POP_RANK": 7, "POP_CLASS": "Less than 50,000", "PORT_ID": 20400, "LABEL_FLAG": 0, "POP_SOURCE": "US_Census_2019" }, "geometry": { "type": "Point", "coordinates": [ -165.269996652998003, 64.586285929331893 ] } },
{ "type": "Feature", "properties": { "FID": 181, "OBJECTID": 181, "CITY_NAME": "Whitehorse", "GMI_ADMIN": "CAN-YTR", "ADMIN_NAME": "Yukon Territory", "FIPS_CNTRY": "CA", "CNTRY_NAME": "Canada", "STATUS": "Provincial capital", "POP": 0, "POP_RANK": 0, "POP_CLASS": " ", "PORT_ID": 0, "LABEL_FLAG": 0, "POP_SOURCE": " " }, "geometry": { "type": "Point", "coordinates": [ -135.044009662646005, 60.725996983702103 ] } },
{ "type": "Feature", "properties": { "FID": 182, "OBJECTID": 182, "CITY_NAME": "Seward", "GMI_ADMIN": "USA-ALK", "ADMIN_NAME": "Alaska", "FIPS_CNTRY": "US", "CNTRY_NAME": "United States", "STATUS": "Other", "POP": 2796, "POP_RANK": 7, "POP_CLASS": "Less than 50,000", "PORT_ID": 19760, "LABEL_FLAG": 0, "POP_SOURCE": "US_Census_2019" }, "geometry": { "type": "Point", "coordinates": [ -149.450003597868005, 60.119999961341797 ] } },
{ "type": "Feature", "properties": { "FID": 183, "OBJECTID": 183, "CITY_NAME": "Honolulu", "GMI_ADMIN": "USA-HAW", "ADMIN_NAME": "Hawaii", "FIPS_CNTRY": "US", "CNTRY_NAME": "United States", "STATUS": "Provincial capital", "POP": 371657, "POP_RANK": 4, "POP_CLASS": "250,000 to 499,999", "PORT_ID": 56280, "LABEL_FLAG": 0, "POP_SOURCE": "US_Census_2019" }, "geometry": { "type": "Point", "coordinates": [ -157.861997701133987, 21.329000927222999 ] } },
{ "type": "Feature", "properties": { "FID": 184, "OBJECTID": 184, "CITY_NAME": "Hilo", "GMI_ADMIN": "USA-HAW", "ADMIN_NAME": "Hawaii", "FIPS_CNTRY": "US", "CNTRY_NAME": "United States", "STATUS": "Other", "POP": 43050, "POP_RANK": 7, "POP_CLASS": "Less than 50,000", "PORT_ID": 56090, "LABEL_FLAG": 0, "POP_SOURCE": "US_Census_2019" }, "geometry": { "type": "Point", "coordinates": [ -155.067290636427003, 19.714815066572601 ] } },
{ "type": "Feature", "properties": { "FID": 185, "OBJECTID": 185, "CITY_NAME": "Anchorage", "GMI_ADMIN": "USA-ALK", "ADMIN_NAME": "Alaska", "FIPS_CNTRY": "US", "CNTRY_NAME": "United States", "STATUS": "Other", "POP": 288000, "POP_RANK": 4, "POP_CLASS": "250,000 to 499,999", "PORT_ID": 19800, "LABEL_FLAG": 0, "POP_SOURCE": "US_Census_2019" }, "geometry": { "type": "Point", "coordinates": [ -149.89798755548, 61.202997011575903 ] } },
{ "type": "Feature", "properties": { "FID": 186, "OBJECTID": 186, "CITY_NAME": "Edmonton", "GMI_ADMIN": "CAN-ALB", "ADMIN_NAME": "Alberta", "FIPS_CNTRY": "CA", "CNTRY_NAME": "Canada", "STATUS": "Provincial capital", "POP": 1025096, "POP_RANK": 2, "POP_CLASS": "1,000,000 to 4,999,999", "PORT_ID": 0, "LABEL_FLAG": 0, "POP_SOURCE": "UN_Data_2010_2020" }, "geometry": { "type": "Point", "coordinates": [ -113.507999701193995, 53.556002918667197 ] } },
{ "type": "Feature", "properties": { "FID": 187, "OBJECTID": 187, "CITY_NAME": "Calgary", "GMI_ADMIN": "CAN-ALB", "ADMIN_NAME": "Alberta", "FIPS_CNTRY": "CA", "CNTRY_NAME": "Canada", "STATUS": "Other", "POP": 1335145, "POP_RANK": 2, "POP_CLASS": "1,000,000 to 4,999,999", "PORT_ID": 0, "LABEL_FLAG": 0, "POP_SOURCE": "UN_Data_2010_2020" }, "geometry": { "type": "Point", "coordinates": [ -114.049997573252995, 51.029999945347299 ] } },
{ "type": "Feature", "properties": { "FID": 188, "OBJECTID": 188, "CITY_NAME": "Vancouver", "GMI_ADMIN": "CAN-BCL", "ADMIN_NAME": "British Columbia", "FIPS_CNTRY": "CA", "CNTRY_NAME": "Canada", "STATUS": "Other", "POP": 685885, "POP_RANK": 3, "POP_CLASS": "500,000 to 999,999", "PORT_ID": 18150, "LABEL_FLAG": 0, "POP_SOURCE": "UN_Data_2010_2020" }, "geometry": { "type": "Point", "coordinates": [ -122.963066598078996, 49.274297920435501 ] } },
{ "type": "Feature", "properties": { "FID": 189, "OBJECTID": 189, "CITY_NAME": "Victoria", "GMI_ADMIN": "CAN-BCL", "ADMIN_NAME": "British Columbia", "FIPS_CNTRY": "CA", "CNTRY_NAME": "Canada", "STATUS": "Provincial capital", "POP": 94005, "POP_RANK": 6, "POP_CLASS": "50,000 to 99,999", "PORT_ID": 5760, "LABEL_FLAG": 0, "POP_SOURCE": "UN_Data_2010_2020" }, "geometry": { "type": "Point", "coordinates": [ -123.371000696978001, 48.444003022725603 ] } },
{ "type": "Feature", "properties": { "FID": 190, "OBJECTID": 190, "CITY_NAME": "Seattle", "GMI_ADMIN": "USA-WSH", "ADMIN_NAME": "Washington", "FIPS_CNTRY": "US", "CNTRY_NAME": "United States", "STATUS": "Other", "POP": 753675, "POP_RANK": 3, "POP_CLASS": "500,000 to 999,999", "PORT_ID": 17730, "LABEL_FLAG": 0, "POP_SOURCE": "US_Census_2019" }, "geometry": { "type": "Point", "coordinates": [ -122.316650688446003, 47.588552954002601 ] } },
{ "type": "Feature", "properties": { "FID": 191, "OBJECTID": 191, "CITY_NAME": "Olympia", "GMI_ADMIN": "USA-WSH", "ADMIN_NAME": "Washington", "FIPS_CNTRY": "US", "CNTRY_NAME": "United States", "STATUS": "Provincial capital", "POP": 52882, "POP_RANK": 6, "POP_CLASS": "50,000 to 99,999", "PORT_ID": 17660, "LABEL_FLAG": 0, "POP_SOURCE": "US_Census_2019" }, "geometry": { "type": "Point", "coordinates": [ -122.892002619405005, 47.043999021346799 ] } },
{ "type": "Feature", "properties": { "FID": 192, "OBJECTID": 192, "CITY_NAME": "Portland", "GMI_ADMIN": "USA-ORE", "ADMIN_NAME": "Oregon", "FIPS_CNTRY": "US", "CNTRY_NAME": "United States", "STATUS": "Other", "POP": 654741, "POP_RANK": 3, "POP_CLASS": "500,000 to 999,999", "PORT_ID": 16940, "LABEL_FLAG": 0, "POP_SOURCE": "US_Census_2019" }, "geometry": { "type": "Point", "coordinates": [ -122.641685582858003, 45.442124979446099 ] } },
{ "type": "Feature", "properties": { "FID": 193, "OBJECTID": 193, "CITY_NAME": "Inuvik", "GMI_ADMIN": "CAN-NTR", "ADMIN_NAME": "Northwest Territories", "FIPS_CNTRY": "CA", "CNTRY_NAME": "Canada", "STATUS": "Other", "POP": 0, "POP_RANK": 0, "POP_CLASS": " ", "PORT_ID": 0, "LABEL_FLAG": 0, "POP_SOURCE": " " }, "geometry": { "type": "Point", "coordinates": [ -133.705988558667997, 68.365998068146595 ] } },
{ "type": "Feature", "properties": { "FID": 194, "OBJECTID": 194, "CITY_NAME": "Bismarck", "GMI_ADMIN": "USA-NDA", "ADMIN_NAME": "North Dakota", "FIPS_CNTRY": "US", "CNTRY_NAME": "United States", "STATUS": "Provincial capital", "POP": 73529, "POP_RANK": 6, "POP_CLASS": "50,000 to 99,999", "PORT_ID": 0, "LABEL_FLAG": 0, "POP_SOURCE": "US_Census_2019" }, "geometry": { "type": "Point", "coordinates": [ -100.783295581336006, 46.799999985419603 ] } },
{ "type": "Feature", "properties": { "FID": 195, "OBJECTID": 195, "CITY_NAME": "Churchill", "GMI_ADMIN": "CAN-MNT", "ADMIN_NAME": "Manitoba", "FIPS_CNTRY": "CA", "CNTRY_NAME": "Canada", "STATUS": "Other", "POP": 0, "POP_RANK": 0, "POP_CLASS": " ", "PORT_ID": 1090, "LABEL_FLAG": 0, "POP_SOURCE": " " }, "geometry": { "type": "Point", "coordinates": [ -94.131899668002106, 58.748462955444303 ] } },
{ "type": "Feature", "properties": { "FID": 196, "OBJECTID": 196, "CITY_NAME": "Saskatoon", "GMI_ADMIN": "CAN-SSK", "ADMIN_NAME": "Saskatchewan", "FIPS_CNTRY": "CA", "CNTRY_NAME": "Canada", "STATUS": "Other", "POP": 275242, "POP_RANK": 4, "POP_CLASS": "250,000 to 499,999", "PORT_ID": 0, "LABEL_FLAG": 0, "POP_SOURCE": "UN_Data_2010_2020" }, "geometry": { "type": "Point", "coordinates": [ -106.630001718041996, 52.109999921032298 ] } },
{ "type": "Feature", "properties": { "FID": 197, "OBJECTID": 197, "CITY_NAME": "Regina", "GMI_ADMIN": "CAN-SSK", "ADMIN_NAME": "Saskatchewan", "FIPS_CNTRY": "CA", "CNTRY_NAME": "Canada", "STATUS": "Provincial capital", "POP": 237011, "POP_RANK": 5, "POP_CLASS": "100,000 to 249,999", "PORT_ID": 0, "LABEL_FLAG": 0, "POP_SOURCE": "UN_Data_2010_2020" }, "geometry": { "type": "Point", "coordinates": [ -104.615999559387006, 50.447997060647602 ] } },
{ "type": "Feature", "properties": { "FID": 198, "OBJECTID": 198, "CITY_NAME": "Winnipeg", "GMI_ADMIN": "CAN-MNT", "ADMIN_NAME": "Manitoba", "FIPS_CNTRY": "CA", "CNTRY_NAME": "Canada", "STATUS": "Provincial capital", "POP": 763922, "POP_RANK": 3, "POP_CLASS": "500,000 to 999,999", "PORT_ID": 0, "LABEL_FLAG": 0, "POP_SOURCE": "UN_Data_2010_2020" }, "geometry": { "type": "Point", "coordinates": [ -97.124003584443102, 49.921001937119101 ] } },
{ "type": "Feature", "properties": { "FID": 199, "OBJECTID": 199, "CITY_NAME": "Helena", "GMI_ADMIN": "USA-MNT", "ADMIN_NAME": "Montana", "FIPS_CNTRY": "US", "CNTRY_NAME": "United States", "STATUS": "Provincial capital", "POP": 33124, "POP_RANK": 7, "POP_CLASS": "Less than 50,000", "PORT_ID": 0, "LABEL_FLAG": 0, "POP_SOURCE": "US_Census_2019" }, "geometry": { "type": "Point", "coordinates": [ -112.034996555231999, 46.5959970260161 ] } },
{ "type": "Feature", "properties": { "FID": 200, "OBJECTID": 200, "CITY_NAME": "Saint Paul", "GMI_ADMIN": "USA-MNN", "ADMIN_NAME": "Minnesota", "FIPS_CNTRY": "US", "CNTRY_NAME": "United States", "STATUS": "Provincial capital", "POP": 308096, "POP_RANK": 4, "POP_CLASS": "250,000 to 499,999", "PORT_ID": 0, "LABEL_FLAG": 0, "POP_SOURCE": "US_Census_2019" }, "geometry": { "type": "Point", "coordinates": [ -93.065003681342702, 45.020997033894901 ] } },
{ "type": "Feature", "properties": { "FID": 201, "OBJECTID": 201, "CITY_NAME": "Pierre", "GMI_ADMIN": "USA-SDA", "ADMIN_NAME": "South Dakota", "FIPS_CNTRY": "US", "CNTRY_NAME": "United States", "STATUS": "Provincial capital", "POP": 13867, "POP_RANK": 7, "POP_CLASS": "Less than 50,000", "PORT_ID": 0, "LABEL_FLAG": 0, "POP_SOURCE": "US_Census_2019" }, "geometry": { "type": "Point", "coordinates": [ -100.349999622335005, 44.366696986293398 ] } },
{ "type": "Feature", "properties": { "FID": 202, "OBJECTID": 202, "CITY_NAME": "Minneapolis", "GMI_ADMIN": "USA-MNN", "ADMIN_NAME": "Minnesota", "FIPS_CNTRY": "US", "CNTRY_NAME": "United States", "STATUS": "Other", "POP": 429606, "POP_RANK": 4, "POP_CLASS": "250,000 to 499,999", "PORT_ID": 0, "LABEL_FLAG": 0, "POP_SOURCE": "US_Census_2019" }, "geometry": { "type": "Point", "coordinates": [ -93.307787570761505, 44.924193064956597 ] } },
{ "type": "Feature", "properties": { "FID": 203, "OBJECTID": 203, "CITY_NAME": "Des Moines", "GMI_ADMIN": "USA-IOW", "ADMIN_NAME": "Iowa", "FIPS_CNTRY": "US", "CNTRY_NAME": "United States", "STATUS": "Provincial capital", "POP": 214237, "POP_RANK": 5, "POP_CLASS": "100,000 to 249,999", "PORT_ID": 0, "LABEL_FLAG": 0, "POP_SOURCE": "US_Census_2019" }, "geometry": { "type": "Point", "coordinates": [ -93.621995696780502, 41.597999981181601 ] } },
{ "type": "Feature", "properties": { "FID": 204, "OBJECTID": 204, "CITY_NAME": "Lincoln", "GMI_ADMIN": "USA-NEB", "ADMIN_NAME": "Nebraska", "FIPS_CNTRY": "US", "CNTRY_NAME": "United States", "STATUS": "Provincial capital", "POP": 289102, "POP_RANK": 4, "POP_CLASS": "250,000 to 499,999", "PORT_ID": 0, "LABEL_FLAG": 0, "POP_SOURCE": "US_Census_2019" }, "geometry": { "type": "Point", "coordinates": [ -96.681995572727004, 40.806999012830097 ] } },
{ "type": "Feature", "properties": { "FID": 205, "OBJECTID": 205, "CITY_NAME": "Topeka", "GMI_ADMIN": "USA-KAN", "ADMIN_NAME": "Kansas", "FIPS_CNTRY": "US", "CNTRY_NAME": "United States", "STATUS": "Provincial capital", "POP": 125310, "POP_RANK": 5, "POP_CLASS": "100,000 to 249,999", "PORT_ID": 0, "LABEL_FLAG": 0, "POP_SOURCE": "US_Census_2019" }, "geometry": { "type": "Point", "coordinates": [ -95.695001716004796, 39.045996049867803 ] } },
{ "type": "Feature", "properties": { "FID": 206, "OBJECTID": 206, "CITY_NAME": "Oklahoma City", "GMI_ADMIN": "USA-OKL", "ADMIN_NAME": "Oklahoma", "FIPS_CNTRY": "US", "CNTRY_NAME": "United States", "STATUS": "Provincial capital", "POP": 655057, "POP_RANK": 3, "POP_CLASS": "500,000 to 999,999", "PORT_ID": 0, "LABEL_FLAG": 0, "POP_SOURCE": "US_Census_2019" }, "geometry": { "type": "Point", "coordinates": [ -97.530002682916503, 35.489996967151697 ] } },
{ "type": "Feature", "properties": { "FID": 207, "OBJECTID": 207, "CITY_NAME": "San Diego", "GMI_ADMIN": "USA-CAL", "ADMIN_NAME": "California", "FIPS_CNTRY": "US", "CNTRY_NAME": "United States", "STATUS": "Other", "POP": 1423851, "POP_RANK": 2, "POP_CLASS": "1,000,000 to 4,999,999", "PORT_ID": 16010, "LABEL_FLAG": 0, "POP_SOURCE": "US_Census_2019" }, "geometry": { "type": "Point", "coordinates": [ -117.125495655804002, 32.761458047066 ] } },
{ "type": "Feature", "properties": { "FID": 208, "OBJECTID": 208, "CITY_NAME": "Mexicali", "GMI_ADMIN": "MEX-BCN", "ADMIN_NAME": "Baja California", "FIPS_CNTRY": "MX", "CNTRY_NAME": "Mexico", "STATUS": "Provincial capital", "POP": 1087478, "POP_RANK": 2, "POP_CLASS": "1,000,000 to 4,999,999", "PORT_ID": 0, "LABEL_FLAG": 0, "POP_SOURCE": "UN_Data_2010_2020" }, "geometry": { "type": "Point", "coordinates": [ -115.467002703828001, 32.654996948236501 ] } },
{ "type": "Feature", "properties": { "FID": 209, "OBJECTID": 209, "CITY_NAME": "Boise", "GMI_ADMIN": "USA-IDA", "ADMIN_NAME": "Idaho", "FIPS_CNTRY": "US", "CNTRY_NAME": "United States", "STATUS": "Provincial capital", "POP": 228959, "POP_RANK": 5, "POP_CLASS": "100,000 to 249,999", "PORT_ID": 0, "LABEL_FLAG": 0, "POP_SOURCE": "US_Census_2019" }, "geometry": { "type": "Point", "coordinates": [ -116.216702591520004, 43.616700055432801 ] } },
{ "type": "Feature", "properties": { "FID": 210, "OBJECTID": 210, "CITY_NAME": "Oakland", "GMI_ADMIN": "USA-CAL", "ADMIN_NAME": "California", "FIPS_CNTRY": "US", "CNTRY_NAME": "United States", "STATUS": "Other", "POP": 433031, "POP_RANK": 4, "POP_CLASS": "250,000 to 499,999", "PORT_ID": 16340, "LABEL_FLAG": 0, "POP_SOURCE": "US_Census_2019" }, "geometry": { "type": "Point", "coordinates": [ -122.271470670818005, 37.810457983038901 ] } },
{ "type": "Feature", "properties": { "FID": 211, "OBJECTID": 211, "CITY_NAME": "Salem", "GMI_ADMIN": "USA-ORE", "ADMIN_NAME": "Oregon", "FIPS_CNTRY": "US", "CNTRY_NAME": "United States", "STATUS": "Provincial capital", "POP": 146338, "POP_RANK": 5, "POP_CLASS": "100,000 to 249,999", "PORT_ID": 7225, "LABEL_FLAG": 0, "POP_SOURCE": "US_Census_2019" }, "geometry": { "type": "Point", "coordinates": [ -122.991002556498003, 44.9559990242266 ] } },
{ "type": "Feature", "properties": { "FID": 212, "OBJECTID": 212, "CITY_NAME": "Carson City", "GMI_ADMIN": "USA-NEV", "ADMIN_NAME": "Nevada", "FIPS_CNTRY": "US", "CNTRY_NAME": "United States", "STATUS": "Provincial capital", "POP": 55916, "POP_RANK": 6, "POP_CLASS": "50,000 to 99,999", "PORT_ID": 0, "LABEL_FLAG": 0, "POP_SOURCE": "US_Census_2019" }, "geometry": { "type": "Point", "coordinates": [ -119.765996607339005, 39.165002961341102 ] } },
{ "type": "Feature", "properties": { "FID": 213, "OBJECTID": 213, "CITY_NAME": "Sacramento", "GMI_ADMIN": "USA-CAL", "ADMIN_NAME": "California", "FIPS_CNTRY": "US", "CNTRY_NAME": "United States", "STATUS": "Provincial capital", "POP": 513624, "POP_RANK": 3, "POP_CLASS": "500,000 to 999,999", "PORT_ID": 16590, "LABEL_FLAG": 0, "POP_SOURCE": "US_Census_2019" }, "geometry": { "type": "Point", "coordinates": [ -121.422995572841003, 38.566997972294701 ] } },
{ "type": "Feature", "properties": { "FID": 214, "OBJECTID": 214, "CITY_NAME": "San Francisco", "GMI_ADMIN": "USA-CAL", "ADMIN_NAME": "California", "FIPS_CNTRY": "US", "CNTRY_NAME": "United States", "STATUS": "Other", "POP": 881549, "POP_RANK": 3, "POP_CLASS": "500,000 to 999,999", "PORT_ID": 16300, "LABEL_FLAG": 0, "POP_SOURCE": "US_Census_2019" }, "geometry": { "type": "Point", "coordinates": [ -122.380091662365999, 37.795814995983903 ] } },
{ "type": "Feature", "properties": { "FID": 215, "OBJECTID": 215, "CITY_NAME": "San Jose", "GMI_ADMIN": "USA-CAL", "ADMIN_NAME": "California", "FIPS_CNTRY": "US", "CNTRY_NAME": "United States", "STATUS": "Other", "POP": 1021795, "POP_RANK": 2, "POP_CLASS": "1,000,000 to 4,999,999", "PORT_ID": 0, "LABEL_FLAG": 0, "POP_SOURCE": "US_Census_2019" }, "geometry": { "type": "Point", "coordinates": [ -121.847453711547004, 37.308105031179899 ] } },
{ "type": "Feature", "properties": { "FID": 216, "OBJECTID": 216, "CITY_NAME": "Los Angeles", "GMI_ADMIN": "USA-CAL", "ADMIN_NAME": "California", "FIPS_CNTRY": "US", "CNTRY_NAME": "United States", "STATUS": "Other", "POP": 3979576, "POP_RANK": 2, "POP_CLASS": "1,000,000 to 4,999,999", "PORT_ID": 16080, "LABEL_FLAG": 0, "POP_SOURCE": "US_Census_2019" }, "geometry": { "type": "Point", "coordinates": [ -118.250000641271001, 34.000001959077899 ] } },
{ "type": "Feature", "properties": { "FID": 217, "OBJECTID": 217, "CITY_NAME": "Cheyenne", "GMI_ADMIN": "USA-WYM", "ADMIN_NAME": "Wyoming", "FIPS_CNTRY": "US", "CNTRY_NAME": "United States", "STATUS": "Provincial capital", "POP": 64235, "POP_RANK": 6, "POP_CLASS": "50,000 to 99,999", "PORT_ID": 0, "LABEL_FLAG": 0, "POP_SOURCE": "US_Census_2019" }, "geometry": { "type": "Point", "coordinates": [ -104.813999599059002, 41.133996046988003 ] } },
{ "type": "Feature", "properties": { "FID": 218, "OBJECTID": 218, "CITY_NAME": "Salt Lake City", "GMI_ADMIN": "USA-UTA", "ADMIN_NAME": "Utah", "FIPS_CNTRY": "US", "CNTRY_NAME": "United States", "STATUS": "Provincial capital", "POP": 200567, "POP_RANK": 5, "POP_CLASS": "100,000 to 249,999", "PORT_ID": 0, "LABEL_FLAG": 0, "POP_SOURCE": "US_Census_2019" }, "geometry": { "type": "Point", "coordinates": [ -111.891995671581995, 40.692995996239297 ] } },
{ "type": "Feature", "properties": { "FID": 219, "OBJECTID": 219, "CITY_NAME": "Denver", "GMI_ADMIN": "USA-COL", "ADMIN_NAME": "Colorado", "FIPS_CNTRY": "US", "CNTRY_NAME": "United States", "STATUS": "Provincial capital", "POP": 727211, "POP_RANK": 3, "POP_CLASS": "500,000 to 999,999", "PORT_ID": 0, "LABEL_FLAG": 0, "POP_SOURCE": "US_Census_2019" }, "geometry": { "type": "Point", "coordinates": [ -105.078995698097998, 39.578004004396298 ] } },
{ "type": "Feature", "properties": { "FID": 220, "OBJECTID": 220, "CITY_NAME": "Kansas City", "GMI_ADMIN": "USA-KAN", "ADMIN_NAME": "Kansas", "FIPS_CNTRY": "US", "CNTRY_NAME": "United States", "STATUS": "Other", "POP": 495327, "POP_RANK": 4, "POP_CLASS": "250,000 to 499,999", "PORT_ID": 0, "LABEL_FLAG": 0, "POP_SOURCE": "US_Census_2019" }, "geometry": { "type": "Point", "coordinates": [ -94.626566565832704, 38.994120066944298 ] } },
{ "type": "Feature", "properties": { "FID": 221, "OBJECTID": 221, "CITY_NAME": "St. Louis", "GMI_ADMIN": "USA-MOS", "ADMIN_NAME": "Missouri", "FIPS_CNTRY": "US", "CNTRY_NAME": "United States", "STATUS": "Other", "POP": 300576, "POP_RANK": 4, "POP_CLASS": "250,000 to 499,999", "PORT_ID": 0, "LABEL_FLAG": 0, "POP_SOURCE": "US_Census_2019" }, "geometry": { "type": "Point", "coordinates": [ -90.341981655482499, 38.638880929597697 ] } },
{ "type": "Feature", "properties": { "FID": 222, "OBJECTID": 222, "CITY_NAME": "Jefferson City", "GMI_ADMIN": "USA-MOS", "ADMIN_NAME": "Missouri", "FIPS_CNTRY": "US", "CNTRY_NAME": "United States", "STATUS": "Provincial capital", "POP": 42708, "POP_RANK": 7, "POP_CLASS": "Less than 50,000", "PORT_ID": 0, "LABEL_FLAG": 0, "POP_SOURCE": "US_Census_2019" }, "geometry": { "type": "Point", "coordinates": [ -92.168999690681503, 38.580003002092297 ] } },
{ "type": "Feature", "properties": { "FID": 223, "OBJECTID": 223, "CITY_NAME": "Santa Fe", "GMI_ADMIN": "USA-NME", "ADMIN_NAME": "New Mexico", "FIPS_CNTRY": "US", "CNTRY_NAME": "United States", "STATUS": "Provincial capital", "POP": 84683, "POP_RANK": 6, "POP_CLASS": "50,000 to 99,999", "PORT_ID": 0, "LABEL_FLAG": 0, "POP_SOURCE": "US_Census_2019" }, "geometry": { "type": "Point", "coordinates": [ -105.941996620699001, 35.683002048058 ] } },
{ "type": "Feature", "properties": { "FID": 224, "OBJECTID": 224, "CITY_NAME": "Memphis", "GMI_ADMIN": "USA-TNN", "ADMIN_NAME": "Tennessee", "FIPS_CNTRY": "US", "CNTRY_NAME": "United States", "STATUS": "Other", "POP": 651073, "POP_RANK": 3, "POP_CLASS": "500,000 to 999,999", "PORT_ID": 0, "LABEL_FLAG": 0, "POP_SOURCE": "US_Census_2019" }, "geometry": { "type": "Point", "coordinates": [ -90.000323596550899, 35.114724047072997 ] } },
{ "type": "Feature", "properties": { "FID": 225, "OBJECTID": 225, "CITY_NAME": "Little Rock", "GMI_ADMIN": "USA-ARK", "ADMIN_NAME": "Arkansas", "FIPS_CNTRY": "US", "CNTRY_NAME": "United States", "STATUS": "Provincial capital", "POP": 197312, "POP_RANK": 5, "POP_CLASS": "100,000 to 249,999", "PORT_ID": 0, "LABEL_FLAG": 0, "POP_SOURCE": "US_Census_2019" }, "geometry": { "type": "Point", "coordinates": [ -92.310002690116207, 34.760996933919103 ] } },
{ "type": "Feature", "properties": { "FID": 226, "OBJECTID": 226, "CITY_NAME": "Phoenix", "GMI_ADMIN": "USA-ARZ", "ADMIN_NAME": "Arizona", "FIPS_CNTRY": "US", "CNTRY_NAME": "United States", "STATUS": "Provincial capital", "POP": 1680992, "POP_RANK": 2, "POP_CLASS": "1,000,000 to 4,999,999", "PORT_ID": 0, "LABEL_FLAG": 0, "POP_SOURCE": "US_Census_2019" }, "geometry": { "type": "Point", "coordinates": [ -112.110002685631997, 33.508998042040503 ] } },
{ "type": "Feature", "properties": { "FID": 227, "OBJECTID": 227, "CITY_NAME": "El Paso", "GMI_ADMIN": "USA-TEX", "ADMIN_NAME": "Texas", "FIPS_CNTRY": "US", "CNTRY_NAME": "United States", "STATUS": "Other", "POP": 681728, "POP_RANK": 3, "POP_CLASS": "500,000 to 999,999", "PORT_ID": 0, "LABEL_FLAG": 0, "POP_SOURCE": "US_Census_2019" }, "geometry": { "type": "Point", "coordinates": [ -106.450001666933005, 31.779998956804501 ] } },
{ "type": "Feature", "properties": { "FID": 228, "OBJECTID": 228, "CITY_NAME": "Hermosillo", "GMI_ADMIN": "MEX-SON", "ADMIN_NAME": "Sonora", "FIPS_CNTRY": "MX", "CNTRY_NAME": "Mexico", "STATUS": "Provincial capital", "POP": 946054, "POP_RANK": 3, "POP_CLASS": "500,000 to 999,999", "PORT_ID": 0, "LABEL_FLAG": 0, "POP_SOURCE": "UN_Data_2010_2020" }, "geometry": { "type": "Point", "coordinates": [ -110.961998689612003, 29.0940030722392 ] } },
{ "type": "Feature", "properties": { "FID": 229, "OBJECTID": 229, "CITY_NAME": "Chihuahua", "GMI_ADMIN": "MEX-CHH", "ADMIN_NAME": "Chihuahua", "FIPS_CNTRY": "MX", "CNTRY_NAME": "Mexico", "STATUS": "Provincial capital", "POP": 994642, "POP_RANK": 3, "POP_CLASS": "500,000 to 999,999", "PORT_ID": 0, "LABEL_FLAG": 1, "POP_SOURCE": "UN_Data_2010_2020" }, "geometry": { "type": "Point", "coordinates": [ -106.073999625851997, 28.630997997411399 ] } },