{
"type": "FeatureCollection",
"name": "World_Cities",
"crs": { "type": "name", "properties": { "name": "urn:ogc:def:crs:OGC:1.3:CRS84" } },
"features": [
{ "type": "Feature", "properties": { "FID": 159, "OBJECTID": 159, "CITY_NAME": "Jamestown", "GMI_ADMIN": "SHN", "ADMIN_NAME": "St. Helena", "FIPS_CNTRY": "SH", "CNTRY_NAME": "St. Helena", "STATUS": "National and provincial capital", "POP": 0, "POP_RANK": 0, "POP_CLASS": " ", "PORT_ID": 46690, "LABEL_FLAG": 0, "POP_SOURCE": " " }, "geometry": { "type": "Point", "coordinates": [ -5.7050006652521, -15.9219990670495 ] } },
{ "type": "Feature", "properties": { "FID": 510, "OBJECTID": 1010, "CITY_NAME": "Malabo", "GMI_ADMIN": "GNQ-BKN", "ADMIN_NAME": "Bioko Norte", "FIPS_CNTRY": "EK", "CNTRY_NAME": "Equatorial Guinea", "STATUS": "National and provincial capital", "POP": 0, "POP_RANK": 0, "POP_CLASS": " ", "PORT_ID": 46320, "LABEL_FLAG": 0, "POP_SOURCE": " " }, "geometry": { "type": "Point", "coordinates": [ 8.77256131186965, 3.74360403670163 ] } },
{ "type": "Feature", "properties": { "FID": 519, "OBJECTID": 1019, "CITY_NAME": "Libreville", "GMI_ADMIN": "GAB-EST", "ADMIN_NAME": "Estuaire", "FIPS_CNTRY": "GB", "CNTRY_NAME": "Gabon", "STATUS": "National and provincial capital", "POP": 703939, "POP_RANK": 3, "POP_CLASS": "500,000 to 999,999", "PORT_ID": 46430, "LABEL_FLAG": 0, "POP_SOURCE": "UN_Data_2010_2020" }, "geometry": { "type": "Point", "coordinates": [ 9.45399637698068, 0.390995954817697 ] } },
{ "type": "Feature", "properties": { "FID": 524, "OBJECTID": 1024, "CITY_NAME": "Ndjamena", "GMI_ADMIN": "TCD-CBG", "ADMIN_NAME": "Chari-Baguirmi", "FIPS_CNTRY": "CD", "CNTRY_NAME": "Chad", "STATUS": "National and provincial capital", "POP": 1522000, "POP_RANK": 2, "POP_CLASS": "1,000,000 to 4,999,999", "PORT_ID": 0, "LABEL_FLAG": 0, "POP_SOURCE": "UN_Habitat_2020" }, "geometry": { "type": "Point", "coordinates": [ 15.2408253958474, 12.104136031675599 ] } },
{ "type": "Feature", "properties": { "FID": 529, "OBJECTID": 1029, "CITY_NAME": "Bangui", "GMI_ADMIN": "CAF-OMP", "ADMIN_NAME": "Ombella-Mpoko", "FIPS_CNTRY": "CT", "CNTRY_NAME": "Central African Republic", "STATUS": "National and provincial capital", "POP": 0, "POP_RANK": 0, "POP_CLASS": " ", "PORT_ID": 0, "LABEL_FLAG": 0, "POP_SOURCE": " " }, "geometry": { "type": "Point", "coordinates": [ 18.562347372378401, 4.36585502953802 ] } },
{ "type": "Feature", "properties": { "FID": 538, "OBJECTID": 1036, "CITY_NAME": "Yaounde", "GMI_ADMIN": "CMR-CNT", "ADMIN_NAME": "Centre", "FIPS_CNTRY": "CM", "CNTRY_NAME": "Cameroon", "STATUS": "National and provincial capital", "POP": 3420000, "POP_RANK": 2, "POP_CLASS": "1,000,000 to 4,999,999", "PORT_ID": 0, "LABEL_FLAG": 0, "POP_SOURCE": "UN_Habitat_2020" }, "geometry": { "type": "Point", "coordinates": [ 11.5139973664074, 3.86499606415293 ] } },
{ "type": "Feature", "properties": { "FID": 572, "OBJECTID": 1070, "CITY_NAME": "Tunis", "GMI_ADMIN": "TUN-TUN", "ADMIN_NAME": "Tunis", "FIPS_CNTRY": "TS", "CNTRY_NAME": "Tunisia", "STATUS": "National and provincial capital", "POP": 1056247, "POP_RANK": 2, "POP_CLASS": "1,000,000 to 4,999,999", "PORT_ID": 45430, "LABEL_FLAG": 1, "POP_SOURCE": "UN_Data_2010_2020" }, "geometry": { "type": "Point", "coordinates": [ 10.166004382618, 36.819000039130103 ] } },
{ "type": "Feature", "properties": { "FID": 594, "OBJECTID": 1092, "CITY_NAME": "Valletta", "GMI_ADMIN": "MLT", "ADMIN_NAME": "Malta", "FIPS_CNTRY": "MT", "CNTRY_NAME": "Malta", "STATUS": "National capital", "POP": 5827, "POP_RANK": 7, "POP_CLASS": "Less than 50,000", "PORT_ID": 40330, "LABEL_FLAG": 0, "POP_SOURCE": "UN_Data_2010_2020" }, "geometry": { "type": "Point", "coordinates": [ 14.5040044394045, 35.912997029338001 ] } },
{ "type": "Feature", "properties": { "FID": 637, "OBJECTID": 1135, "CITY_NAME": "Tripoli", "GMI_ADMIN": "LBY-TRB", "ADMIN_NAME": "Tarabulus", "FIPS_CNTRY": "LY", "CNTRY_NAME": "Libya", "STATUS": "National and provincial capital", "POP": 2302000, "POP_RANK": 2, "POP_CLASS": "1,000,000 to 4,999,999", "PORT_ID": 45330, "LABEL_FLAG": 0, "POP_SOURCE": "UN_Habitat_2020" }, "geometry": { "type": "Point", "coordinates": [ 13.1568933180342, 32.893127933613599 ] } },
{ "type": "Feature", "properties": { "FID": 651, "OBJECTID": 1149, "CITY_NAME": "Nicosia", "GMI_ADMIN": "CYP-NIC", "ADMIN_NAME": "Nicosia", "FIPS_CNTRY": "CY", "CNTRY_NAME": "Cyprus", "STATUS": "National and provincial capital", "POP": 0, "POP_RANK": 0, "POP_CLASS": " ", "PORT_ID": 0, "LABEL_FLAG": 1, "POP_SOURCE": " " }, "geometry": { "type": "Point", "coordinates": [ 33.369003392585597, 35.171001067908897 ] } },
{ "type": "Feature", "properties": { "FID": 677, "OBJECTID": 1175, "CITY_NAME": "Cairo", "GMI_ADMIN": "EGY-AQH", "ADMIN_NAME": "Al Qahirah", "FIPS_CNTRY": "EG", "CNTRY_NAME": "Egypt", "STATUS": "National and provincial capital", "POP": 9539673, "POP_RANK": 1, "POP_CLASS": "5,000,000 and greater", "PORT_ID": 0, "LABEL_FLAG": 0, "POP_SOURCE": "UN_Data_2010_2020" }, "geometry": { "type": "Point", "coordinates": [ 31.250799318015002, 30.077909996785401 ] } },
{ "type": "Feature", "properties": { "FID": 687, "OBJECTID": 1185, "CITY_NAME": "Athens", "GMI_ADMIN": "GRC-CGE", "ADMIN_NAME": "Central Greece and Evvoia", "FIPS_CNTRY": "GR", "CNTRY_NAME": "Greece", "STATUS": "National capital", "POP": 664046, "POP_RANK": 3, "POP_CLASS": "500,000 to 999,999", "PORT_ID": 0, "LABEL_FLAG": 0, "POP_SOURCE": "UN_Data_2010_2020" }, "geometry": { "type": "Point", "coordinates": [ 23.652999379851199, 37.943999986221399 ] } },
{ "type": "Feature", "properties": { "FID": 750, "OBJECTID": 1248, "CITY_NAME": "Beirut", "GMI_ADMIN": "LBN-BYR", "ADMIN_NAME": "Bayrut", "FIPS_CNTRY": "LE", "CNTRY_NAME": "Lebanon", "STATUS": "National and provincial capital", "POP": 2302000, "POP_RANK": 2, "POP_CLASS": "1,000,000 to 4,999,999", "PORT_ID": 45030, "LABEL_FLAG": 0, "POP_SOURCE": "UN_Habitat_2020" }, "geometry": { "type": "Point", "coordinates": [ 35.499996375294899, 33.883326050426099 ] } },
{ "type": "Feature", "properties": { "FID": 817, "OBJECTID": 1315, "CITY_NAME": "Damascus", "GMI_ADMIN": "SYR-DMS", "ADMIN_NAME": "Dimashq", "FIPS_CNTRY": "SY", "CNTRY_NAME": "Syria", "STATUS": "National and provincial capital", "POP": 0, "POP_RANK": 0, "POP_CLASS": " ", "PORT_ID": 0, "LABEL_FLAG": 0, "POP_SOURCE": " " }, "geometry": { "type": "Point", "coordinates": [ 36.299997337927699, 33.499998047759298 ] } },
{ "type": "Feature", "properties": { "FID": 824, "OBJECTID": 1322, "CITY_NAME": "Amman", "GMI_ADMIN": "JOR-AMM", "ADMIN_NAME": "'Amman", "FIPS_CNTRY": "JO", "CNTRY_NAME": "Jordan", "STATUS": "National and provincial capital", "POP": 4007526, "POP_RANK": 2, "POP_CLASS": "1,000,000 to 4,999,999", "PORT_ID": 0, "LABEL_FLAG": 0, "POP_SOURCE": "UN_Data_2010_2020" }, "geometry": { "type": "Point", "coordinates": [ 35.932905433501602, 31.9493789286098 ] } },
{ "type": "Feature", "properties": { "FID": 826, "OBJECTID": 1324, "CITY_NAME": "Jerusalem", "GMI_ADMIN": "ISR-YRS", "ADMIN_NAME": "Yerushalayim", "FIPS_CNTRY": "IS", "CNTRY_NAME": "Israel", "STATUS": "National and provincial capital", "POP": 910370, "POP_RANK": 3, "POP_CLASS": "500,000 to 999,999", "PORT_ID": 0, "LABEL_FLAG": 0, "POP_SOURCE": "UN_Data_2010_2020" }, "geometry": { "type": "Point", "coordinates": [ 35.225217378783803, 31.773744005459498 ] } },
{ "type": "Feature", "properties": { "FID": 832, "OBJECTID": 1330, "CITY_NAME": "Baghdad", "GMI_ADMIN": "IRQ-BGH", "ADMIN_NAME": "Baghdad", "FIPS_CNTRY": "IZ", "CNTRY_NAME": "Iraq", "STATUS": "National and provincial capital", "POP": 7816000, "POP_RANK": 1, "POP_CLASS": "5,000,000 and greater", "PORT_ID": 0, "LABEL_FLAG": 1, "POP_SOURCE": "UN_Habitat_2020" }, "geometry": { "type": "Point", "coordinates": [ 44.3979994368338, 33.334002051297801 ] } },
{ "type": "Feature", "properties": { "FID": 842, "OBJECTID": 1340, "CITY_NAME": "Kampala", "GMI_ADMIN": "UGA-CNT", "ADMIN_NAME": "Central", "FIPS_CNTRY": "UG", "CNTRY_NAME": "Uganda", "STATUS": "National and provincial capital", "POP": 1507114, "POP_RANK": 2, "POP_CLASS": "1,000,000 to 4,999,999", "PORT_ID": 0, "LABEL_FLAG": 0, "POP_SOURCE": "UN_Data_2010_2020" }, "geometry": { "type": "Point", "coordinates": [ 32.574996413567099, 0.323001036084183 ] } },
{ "type": "Feature", "properties": { "FID": 852, "OBJECTID": 1350, "CITY_NAME": "Khartoum", "GMI_ADMIN": "SDN-AKH", "ADMIN_NAME": "Al Khartum", "FIPS_CNTRY": "SU", "CNTRY_NAME": "Sudan", "STATUS": "National and provincial capital", "POP": 6028000, "POP_RANK": 1, "POP_CLASS": "5,000,000 and greater", "PORT_ID": 0, "LABEL_FLAG": 0, "POP_SOURCE": "UN_Habitat_2020" }, "geometry": { "type": "Point", "coordinates": [ 32.529996442161, 15.550001933168 ] } },
{ "type": "Feature", "properties": { "FID": 859, "OBJECTID": 1357, "CITY_NAME": "Asmara", "GMI_ADMIN": "ERI-HMS", "ADMIN_NAME": "Hamasen", "FIPS_CNTRY": "ER", "CNTRY_NAME": "Eritrea", "STATUS": "National capital", "POP": 0, "POP_RANK": 0, "POP_CLASS": " ", "PORT_ID": 0, "LABEL_FLAG": 0, "POP_SOURCE": " " }, "geometry": { "type": "Point", "coordinates": [ 38.970000385231202, 15.3299970349014 ] } },
{ "type": "Feature", "properties": { "FID": 865, "OBJECTID": 1363, "CITY_NAME": "Sanaa", "GMI_ADMIN": "YEM-SAN", "ADMIN_NAME": "San'a'", "FIPS_CNTRY": "YM", "CNTRY_NAME": "Yemen", "STATUS": "National and provincial capital", "POP": 3820000, "POP_RANK": 2, "POP_CLASS": "1,000,000 to 4,999,999", "PORT_ID": 0, "LABEL_FLAG": 0, "POP_SOURCE": "UN_Habitat_2020" }, "geometry": { "type": "Point", "coordinates": [ 44.209503289185697, 15.3614430672131 ] } },
{ "type": "Feature", "properties": { "FID": 874, "OBJECTID": 1372, "CITY_NAME": "Djibouti", "GMI_ADMIN": "DJI-DJI", "ADMIN_NAME": "Djibouti", "FIPS_CNTRY": "DJ", "CNTRY_NAME": "Djibouti", "STATUS": "National and provincial capital", "POP": 0, "POP_RANK": 0, "POP_CLASS": " ", "PORT_ID": 47850, "LABEL_FLAG": 1, "POP_SOURCE": " " }, "geometry": { "type": "Point", "coordinates": [ 43.100001383215698, 11.5000020243489 ] } },
{ "type": "Feature", "properties": { "FID": 886, "OBJECTID": 1384, "CITY_NAME": "Addis Ababa", "GMI_ADMIN": "ETH-SHE", "ADMIN_NAME": "Shewa", "FIPS_CNTRY": "ET", "CNTRY_NAME": "Ethiopia", "STATUS": "National and provincial capital", "POP": 3881000, "POP_RANK": 2, "POP_CLASS": "1,000,000 to 4,999,999", "PORT_ID": 0, "LABEL_FLAG": 0, "POP_SOURCE": "UN_Habitat_2020" }, "geometry": { "type": "Point", "coordinates": [ 38.700000391309999, 9.02999706641611 ] } },
{ "type": "Feature", "properties": { "FID": 1628, "OBJECTID": 624, "CITY_NAME": "Praia", "GMI_ADMIN": "CPV", "ADMIN_NAME": "Cape Verde", "FIPS_CNTRY": "CV", "CNTRY_NAME": "Cape Verde", "STATUS": "National capital", "POP": 0, "POP_RANK": 0, "POP_CLASS": " ", "PORT_ID": 45910, "LABEL_FLAG": 0, "POP_SOURCE": " " }, "geometry": { "type": "Point", "coordinates": [ -23.520995559507, 14.922999077062 ] } },
{ "type": "Feature", "properties": { "FID": 1643, "OBJECTID": 639, "CITY_NAME": "Rabat", "GMI_ADMIN": "MAR-NWT", "ADMIN_NAME": "North-West", "FIPS_CNTRY": "MO", "CNTRY_NAME": "Morocco", "STATUS": "National and provincial capital", "POP": 2213000, "POP_RANK": 2, "POP_CLASS": "1,000,000 to 4,999,999", "PORT_ID": 45787, "LABEL_FLAG": 0, "POP_SOURCE": "UN_Habitat_2020" }, "geometry": { "type": "Point", "coordinates": [ -6.8329976868925, 34.014995936973797 ] } },
{ "type": "Feature", "properties": { "FID": 1647, "OBJECTID": 643, "CITY_NAME": "Lisbon", "GMI_ADMIN": "PRT-LIS", "ADMIN_NAME": "Lisboa", "FIPS_CNTRY": "PO", "CNTRY_NAME": "Portugal", "STATUS": "National and provincial capital", "POP": 506654, "POP_RANK": 3, "POP_CLASS": "500,000 to 999,999", "PORT_ID": 37990, "LABEL_FLAG": 0, "POP_SOURCE": "UN_Data_2010_2020" }, "geometry": { "type": "Point", "coordinates": [ -9.129995602180999, 38.729997059690596 ] } },
{ "type": "Feature", "properties": { "FID": 1664, "OBJECTID": 660, "CITY_NAME": "Gibraltar", "GMI_ADMIN": "GIB", "ADMIN_NAME": "Gibraltar", "FIPS_CNTRY": "GI", "CNTRY_NAME": "Gibraltar", "STATUS": "National and provincial capital", "POP": 34003, "POP_RANK": 7, "POP_CLASS": "Less than 50,000", "PORT_ID": 0, "LABEL_FLAG": 1, "POP_SOURCE": "UN_Data_2010_2020" }, "geometry": { "type": "Point", "coordinates": [ -5.35200267310017, 36.128997057571503 ] } },
{ "type": "Feature", "properties": { "FID": 1690, "OBJECTID": 686, "CITY_NAME": "Conakry", "GMI_ADMIN": "GIN-CNK", "ADMIN_NAME": "Conakry", "FIPS_CNTRY": "GV", "CNTRY_NAME": "Guinea", "STATUS": "National and provincial capital", "POP": 1879695, "POP_RANK": 2, "POP_CLASS": "1,000,000 to 4,999,999", "PORT_ID": 45855, "LABEL_FLAG": 1, "POP_SOURCE": "UN_Data_2010_2020" }, "geometry": { "type": "Point", "coordinates": [ -13.6719986183709, 9.549999015996709 ] } },
{ "type": "Feature", "properties": { "FID": 1694, "OBJECTID": 689, "CITY_NAME": "Freetown", "GMI_ADMIN": "SLE-WAR", "ADMIN_NAME": "Western Area", "FIPS_CNTRY": "SL", "CNTRY_NAME": "Sierra Leone", "STATUS": "National and provincial capital", "POP": 1055964, "POP_RANK": 2, "POP_CLASS": "1,000,000 to 4,999,999", "PORT_ID": 45862, "LABEL_FLAG": 0, "POP_SOURCE": "UN_Data_2010_2020" }, "geometry": { "type": "Point", "coordinates": [ -13.238999702537299, 8.48600097917455 ] } },
{ "type": "Feature", "properties": { "FID": 1704, "OBJECTID": 699, "CITY_NAME": "Dakar", "GMI_ADMIN": "SEN-DKR", "ADMIN_NAME": "Dakar", "FIPS_CNTRY": "SG", "CNTRY_NAME": "Senegal", "STATUS": "National and provincial capital", "POP": 150257, "POP_RANK": 5, "POP_CLASS": "100,000 to 249,999", "PORT_ID": 45820, "LABEL_FLAG": 1, "POP_SOURCE": "UN_Data_2010_2020" }, "geometry": { "type": "Point", "coordinates": [ -17.451998698752298, 14.687001010566201 ] } },
{ "type": "Feature", "properties": { "FID": 1705, "OBJECTID": 700, "CITY_NAME": "Nouakchott", "GMI_ADMIN": "MRT-TRR", "ADMIN_NAME": "Trarza", "FIPS_CNTRY": "MR", "CNTRY_NAME": "Mauritania", "STATUS": "National capital", "POP": 958399, "POP_RANK": 3, "POP_CLASS": "500,000 to 999,999", "PORT_ID": 0, "LABEL_FLAG": 0, "POP_SOURCE": "UN_Data_2010_2020" }, "geometry": { "type": "Point", "coordinates": [ -15.977996693424201, 18.0839969398018 ] } },
{ "type": "Feature", "properties": { "FID": 1713, "OBJECTID": 708, "CITY_NAME": "Banjul", "GMI_ADMIN": "GMB-BNJ", "ADMIN_NAME": "Banjul", "FIPS_CNTRY": "GA", "CNTRY_NAME": "The Gambia", "STATUS": "National capital and provincial capital enclave", "POP": 0, "POP_RANK": 0, "POP_CLASS": " ", "PORT_ID": 45825, "LABEL_FLAG": 1, "POP_SOURCE": " " }, "geometry": { "type": "Point", "coordinates": [ -16.596791560041002, 13.463954974191999 ] } },
{ "type": "Feature", "properties": { "FID": 1720, "OBJECTID": 715, "CITY_NAME": "Bissau", "GMI_ADMIN": "GNB-BIS", "ADMIN_NAME": "Bissau", "FIPS_CNTRY": "PU", "CNTRY_NAME": "Guinea-Bissau", "STATUS": "National capital and provincial capital enclave", "POP": 0, "POP_RANK": 0, "POP_CLASS": " ", "PORT_ID": 45838, "LABEL_FLAG": 1, "POP_SOURCE": " " }, "geometry": { "type": "Point", "coordinates": [ -15.5979987184284, 11.863998060481499 ] } },
{ "type": "Feature", "properties": { "FID": 1737, "OBJECTID": 732, "CITY_NAME": "Bamako", "GMI_ADMIN": "MLI-BAM", "ADMIN_NAME": "Bamako", "FIPS_CNTRY": "ML", "CNTRY_NAME": "Mali", "STATUS": "National and provincial capital", "POP": 2998000, "POP_RANK": 2, "POP_CLASS": "1,000,000 to 4,999,999", "PORT_ID": 0, "LABEL_FLAG": 1, "POP_SOURCE": "UN_Habitat_2020" }, "geometry": { "type": "Point", "coordinates": [ -7.98648266718402, 12.652955967578499 ] } },
{ "type": "Feature", "properties": { "FID": 1752, "OBJECTID": 747, "CITY_NAME": "Ouagadougou", "GMI_ADMIN": "BFA-KDG", "ADMIN_NAME": "Kadiogo", "FIPS_CNTRY": "UV", "CNTRY_NAME": "Burkina Faso", "STATUS": "National and provincial capital", "POP": 3662000, "POP_RANK": 2, "POP_CLASS": "1,000,000 to 4,999,999", "PORT_ID": 0, "LABEL_FLAG": 0, "POP_SOURCE": "UN_Habitat_2020" }, "geometry": { "type": "Point", "coordinates": [ -1.67000367044631, 12.4800030380904 ] } },
{ "type": "Feature", "properties": { "FID": 1784, "OBJECTID": 779, "CITY_NAME": "Monrovia", "GMI_ADMIN": "LBR-MNT", "ADMIN_NAME": "Montserrado", "FIPS_CNTRY": "LI", "CNTRY_NAME": "Liberia", "STATUS": "National capital", "POP": 0, "POP_RANK": 0, "POP_CLASS": " ", "PORT_ID": 45940, "LABEL_FLAG": 0, "POP_SOURCE": " " }, "geometry": { "type": "Point", "coordinates": [ -10.7970026884155, 6.3009989291765 ] } },
{ "type": "Feature", "properties": { "FID": 1822, "OBJECTID": 817, "CITY_NAME": "Yamoussoukro", "GMI_ADMIN": "CIV-YMS", "ADMIN_NAME": "Yamoussoukro", "FIPS_CNTRY": "IV", "CNTRY_NAME": "Cote d'Ivoire", "STATUS": "National and provincial capital", "POP": 212670, "POP_RANK": 5, "POP_CLASS": "100,000 to 249,999", "PORT_ID": 0, "LABEL_FLAG": 1, "POP_SOURCE": "UN_Data_2010_2020" }, "geometry": { "type": "Point", "coordinates": [ -5.28299962791556, 6.81800396969163 ] } },
{ "type": "Feature", "properties": { "FID": 1848, "OBJECTID": 843, "CITY_NAME": "Accra", "GMI_ADMIN": "GHA-GAC", "ADMIN_NAME": "Greater Accra", "FIPS_CNTRY": "GH", "CNTRY_NAME": "Ghana", "STATUS": "National and provincial capital", "POP": 1594419, "POP_RANK": 2, "POP_CLASS": "1,000,000 to 4,999,999", "PORT_ID": 46065, "LABEL_FLAG": 0, "POP_SOURCE": "UN_Data_2010_2020" }, "geometry": { "type": "Point", "coordinates": [ -0.200924638491358, 5.55856195379618 ] } },
{ "type": "Feature", "properties": { "FID": 1862, "OBJECTID": 857, "CITY_NAME": "Sao Tome", "GMI_ADMIN": "STP-STO", "ADMIN_NAME": "Sao Tome", "FIPS_CNTRY": "TP", "CNTRY_NAME": "Sao Tome & Principe", "STATUS": "National and provincial capital", "POP": 0, "POP_RANK": 0, "POP_CLASS": " ", "PORT_ID": 46380, "LABEL_FLAG": 1, "POP_SOURCE": " " }, "geometry": { "type": "Point", "coordinates": [ 6.72800441589141, 0.336995989130222 ] } },
{ "type": "Feature", "properties": { "FID": 1879, "OBJECTID": 874, "CITY_NAME": "Porto Novo", "GMI_ADMIN": "BEN-OUE", "ADMIN_NAME": "Oueme", "FIPS_CNTRY": "BN", "CNTRY_NAME": "Benin", "STATUS": "National and provincial capital", "POP": 264320, "POP_RANK": 4, "POP_CLASS": "250,000 to 499,999", "PORT_ID": 0, "LABEL_FLAG": 0, "POP_SOURCE": "UN_Data_2010_2020" }, "geometry": { "type": "Point", "coordinates": [ 2.63250030695701, 6.60110404132002 ] } },
{ "type": "Feature", "properties": { "FID": 1882, "OBJECTID": 877, "CITY_NAME": "Lome", "GMI_ADMIN": "TGO-GLF", "ADMIN_NAME": "Golfe", "FIPS_CNTRY": "TO", "CNTRY_NAME": "Togo", "STATUS": "National and provincial capital", "POP": 839566, "POP_RANK": 3, "POP_CLASS": "500,000 to 999,999", "PORT_ID": 46090, "LABEL_FLAG": 0, "POP_SOURCE": "UN_Data_2010_2020" }, "geometry": { "type": "Point", "coordinates": [ 1.20154540037453, 6.10283704648669 ] } },
{ "type": "Feature", "properties": { "FID": 1885, "OBJECTID": 880, "CITY_NAME": "Abuja", "GMI_ADMIN": "NGA-FCT", "ADMIN_NAME": "Abuja Capital Territory (Abuja)", "FIPS_CNTRY": "NI", "CNTRY_NAME": "Nigeria", "STATUS": "National and provincial capital", "POP": 3306000, "POP_RANK": 2, "POP_CLASS": "1,000,000 to 4,999,999", "PORT_ID": 0, "LABEL_FLAG": 0, "POP_SOURCE": "UN_Habitat_2020" }, "geometry": { "type": "Point", "coordinates": [ 7.25638529958087, 9.057266953107611 ] } },
{ "type": "Feature", "properties": { "FID": 1893, "OBJECTID": 888, "CITY_NAME": "Niamey", "GMI_ADMIN": "NER-NIA", "ADMIN_NAME": "Niamey", "FIPS_CNTRY": "NG", "CNTRY_NAME": "Niger", "STATUS": "National and provincial capital", "POP": 1026848, "POP_RANK": 2, "POP_CLASS": "1,000,000 to 4,999,999", "PORT_ID": 0, "LABEL_FLAG": 1, "POP_SOURCE": "UN_Data_2010_2020" }, "geometry": { "type": "Point", "coordinates": [ 2.12000436518366, 13.514004017519699 ] } },
{ "type": "Feature", "properties": { "FID": 1910, "OBJECTID": 905, "CITY_NAME": "Algiers", "GMI_ADMIN": "DZA-ALG", "ADMIN_NAME": "Alger", "FIPS_CNTRY": "AG", "CNTRY_NAME": "Algeria", "STATUS": "National and provincial capital", "POP": 3608000, "POP_RANK": 2, "POP_CLASS": "1,000,000 to 4,999,999", "PORT_ID": 45570, "LABEL_FLAG": 0, "POP_SOURCE": "UN_Habitat_2020" }, "geometry": { "type": "Point", "coordinates": [ 3.05000134715283, 36.7832969396894 ] } },
{ "type": "Feature", "properties": { "FID": 2216, "OBJECTID": 1716, "CITY_NAME": "Tehran", "GMI_ADMIN": "IRN-TER", "ADMIN_NAME": "Tehran", "FIPS_CNTRY": "IR", "CNTRY_NAME": "Iran", "STATUS": "National and provincial capital", "POP": 8693706, "POP_RANK": 1, "POP_CLASS": "5,000,000 and greater", "PORT_ID": 0, "LABEL_FLAG": 1, "POP_SOURCE": "UN_Data_2010_2020" }, "geometry": { "type": "Point", "coordinates": [ 51.447996336179799, 35.774001015720302 ] } },
{ "type": "Feature", "properties": { "FID": 2225, "OBJECTID": 1725, "CITY_NAME": "Mogadishu", "GMI_ADMIN": "SOM-BND", "ADMIN_NAME": "Banaadir", "FIPS_CNTRY": "SO", "CNTRY_NAME": "Somalia", "STATUS": "National and provincial capital", "POP": 2693000, "POP_RANK": 2, "POP_CLASS": "1,000,000 to 4,999,999", "PORT_ID": 47160, "LABEL_FLAG": 0, "POP_SOURCE": "UN_Habitat_2020" }, "geometry": { "type": "Point", "coordinates": [ 45.3441423284496, 2.04117302195931 ] } },
{ "type": "Feature", "properties": { "FID": 2231, "OBJECTID": 1731, "CITY_NAME": "Kuwait", "GMI_ADMIN": "KWT-AKW", "ADMIN_NAME": "Al Kuwayt", "FIPS_CNTRY": "KU", "CNTRY_NAME": "Kuwait", "STATUS": "National and provincial capital", "POP": 0, "POP_RANK": 0, "POP_CLASS": " ", "PORT_ID": 48370, "LABEL_FLAG": 0, "POP_SOURCE": " " }, "geometry": { "type": "Point", "coordinates": [ 47.974041403883597, 29.385918067128799 ] } },
{ "type": "Feature", "properties": { "FID": 2237, "OBJECTID": 1737, "CITY_NAME": "Manama", "GMI_ADMIN": "BHR-AMN", "ADMIN_NAME": "Al Manamah", "FIPS_CNTRY": "BA", "CNTRY_NAME": "Bahrain", "STATUS": "National and provincial capital", "POP": 0, "POP_RANK": 0, "POP_CLASS": " ", "PORT_ID": 48310, "LABEL_FLAG": 1, "POP_SOURCE": " " }, "geometry": { "type": "Point", "coordinates": [ 50.583339418602101, 26.2166670378611 ] } },
{ "type": "Feature", "properties": { "FID": 2241, "OBJECTID": 1741, "CITY_NAME": "Riyadh", "GMI_ADMIN": "SAU-ARI", "ADMIN_NAME": "Ar Riyad", "FIPS_CNTRY": "SA", "CNTRY_NAME": "Saudi Arabia", "STATUS": "National and provincial capital", "POP": 5188286, "POP_RANK": 1, "POP_CLASS": "5,000,000 and greater", "PORT_ID": 0, "LABEL_FLAG": 0, "POP_SOURCE": "UN_Data_2010_2020" }, "geometry": { "type": "Point", "coordinates": [ 46.770003317038999, 24.650000968293298 ] } },
{ "type": "Feature", "properties": { "FID": 2255, "OBJECTID": 1755, "CITY_NAME": "Doha", "GMI_ADMIN": "QAT-ADW", "ADMIN_NAME": "Ad Dawhah", "FIPS_CNTRY": "QA", "CNTRY_NAME": "Qatar", "STATUS": "National and provincial capital", "POP": 956457, "POP_RANK": 3, "POP_CLASS": "500,000 to 999,999", "PORT_ID": 48290, "LABEL_FLAG": 0, "POP_SOURCE": "UN_Data_2010_2020" }, "geometry": { "type": "Point", "coordinates": [ 51.532335413983503, 25.284356925305602 ] } },
{ "type": "Feature", "properties": { "FID": 2257, "OBJECTID": 1757, "CITY_NAME": "Abu Dhabi", "GMI_ADMIN": "ARE-AZA", "ADMIN_NAME": "Abu Zaby", "FIPS_CNTRY": "AE", "CNTRY_NAME": "United Arab Emirates", "STATUS": "National and provincial capital", "POP": 1539000, "POP_RANK": 2, "POP_CLASS": "1,000,000 to 4,999,999", "PORT_ID": 48278, "LABEL_FLAG": 0, "POP_SOURCE": "UN_Habitat_2020" }, "geometry": { "type": "Point", "coordinates": [ 54.370998413691801, 24.476004002400401 ] } },
{ "type": "Feature", "properties": { "FID": 2276, "OBJECTID": 1776, "CITY_NAME": "Ashgabat", "GMI_ADMIN": "TKM-ASH", "ADMIN_NAME": "Ashkhabad", "FIPS_CNTRY": "TX", "CNTRY_NAME": "Turkmenistan", "STATUS": "National and provincial capital", "POP": 0, "POP_RANK": 0, "POP_CLASS": " ", "PORT_ID": 0, "LABEL_FLAG": 0, "POP_SOURCE": " " }, "geometry": { "type": "Point", "coordinates": [ 58.390137440417703, 37.950416946068501 ] } },
{ "type": "Feature", "properties": { "FID": 2298, "OBJECTID": 1798, "CITY_NAME": "Muscat", "GMI_ADMIN": "OMN-MSQ", "ADMIN_NAME": "Masqat", "FIPS_CNTRY": "MU", "CNTRY_NAME": "Oman", "STATUS": "National and provincial capital", "POP": 0, "POP_RANK": 0, "POP_CLASS": " ", "PORT_ID": 0, "LABEL_FLAG": 0, "POP_SOURCE": " " }, "geometry": { "type": "Point", "coordinates": [ 58.588002445423101, 23.6069999945829 ] } },
{ "type": "Feature", "properties": { "FID": 2309, "OBJECTID": 1809, "CITY_NAME": "Moroni", "GMI_ADMIN": "COM", "ADMIN_NAME": "Comoros", "FIPS_CNTRY": "CN", "CNTRY_NAME": "Comoros", "STATUS": "National capital", "POP": 0, "POP_RANK": 0, "POP_CLASS": " ", "PORT_ID": 47300, "LABEL_FLAG": 0, "POP_SOURCE": " " }, "geometry": { "type": "Point", "coordinates": [ 43.243002432349698, -11.7000000765532 ] } },
{ "type": "Feature", "properties": { "FID": 2312, "OBJECTID": 1812, "CITY_NAME": "Harare", "GMI_ADMIN": "ZWE-MEA", "ADMIN_NAME": "Mashonaland East", "FIPS_CNTRY": "ZI", "CNTRY_NAME": "Zimbabwe", "STATUS": "National and provincial capital", "POP": 1485231, "POP_RANK": 2, "POP_CLASS": "1,000,000 to 4,999,999", "PORT_ID": 0, "LABEL_FLAG": 0, "POP_SOURCE": "UN_Data_2010_2020" }, "geometry": { "type": "Point", "coordinates": [ 31.020003395825398, -17.829999013060899 ] } },
{ "type": "Feature", "properties": { "FID": 2333, "OBJECTID": 1833, "CITY_NAME": "Windhoek", "GMI_ADMIN": "NAM-WND", "ADMIN_NAME": "Windhoek", "FIPS_CNTRY": "WA", "CNTRY_NAME": "Namibia", "STATUS": "National and provincial capital", "POP": 325858, "POP_RANK": 4, "POP_CLASS": "250,000 to 499,999", "PORT_ID": 0, "LABEL_FLAG": 1, "POP_SOURCE": "UN_Data_2010_2020" }, "geometry": { "type": "Point", "coordinates": [ 17.0769963322286, -22.560003049791099 ] } },
{ "type": "Feature", "properties": { "FID": 2342, "OBJECTID": 1842, "CITY_NAME": "Brazzaville", "GMI_ADMIN": "COG-POO", "ADMIN_NAME": "Pool", "FIPS_CNTRY": "CF", "CNTRY_NAME": "Congo", "STATUS": "National capital", "POP": 2074000, "POP_RANK": 2, "POP_CLASS": "1,000,000 to 4,999,999", "PORT_ID": 0, "LABEL_FLAG": 0, "POP_SOURCE": "UN_Habitat_2020" }, "geometry": { "type": "Point", "coordinates": [ 15.285141423290799, -4.28518799696236 ] } },
{ "type": "Feature", "properties": { "FID": 2348, "OBJECTID": 1848, "CITY_NAME": "Kinshasa", "GMI_ADMIN": "ZAR-KNS", "ADMIN_NAME": "Kinshasa", "FIPS_CNTRY": "CG", "CNTRY_NAME": "Congo, DRC", "STATUS": "National and provincial capital", "POP": 12322000, "POP_RANK": 1, "POP_CLASS": "5,000,000 and greater", "PORT_ID": 0, "LABEL_FLAG": 1, "POP_SOURCE": "UN_Habitat_2020" }, "geometry": { "type": "Point", "coordinates": [ 15.2990013416713, -4.32099899174869 ] } },
{ "type": "Feature", "properties": { "FID": 2353, "OBJECTID": 1853, "CITY_NAME": "Luanda", "GMI_ADMIN": "AGO-LUA", "ADMIN_NAME": "Luanda", "FIPS_CNTRY": "AO", "CNTRY_NAME": "Angola", "STATUS": "National and provincial capital", "POP": 7555000, "POP_RANK": 1, "POP_CLASS": "5,000,000 and greater", "PORT_ID": 46560, "LABEL_FLAG": 1, "POP_SOURCE": "UN_Habitat_2020" }, "geometry": { "type": "Point", "coordinates": [ 13.2350044183293, -8.811998951316591 ] } },
{ "type": "Feature", "properties": { "FID": 2382, "OBJECTID": 1882, "CITY_NAME": "Lusaka", "GMI_ADMIN": "ZMB-LUS", "ADMIN_NAME": "Lusaka", "FIPS_CNTRY": "ZA", "CNTRY_NAME": "Zambia", "STATUS": "National and provincial capital", "POP": 1747152, "POP_RANK": 2, "POP_CLASS": "1,000,000 to 4,999,999", "PORT_ID": 0, "LABEL_FLAG": 1, "POP_SOURCE": "UN_Data_2010_2020" }, "geometry": { "type": "Point", "coordinates": [ 28.1700002974131, -15.429995959678701 ] } },
{ "type": "Feature", "properties": { "FID": 2409, "OBJECTID": 1909, "CITY_NAME": "Bujumbura", "GMI_ADMIN": "BDI-BJM", "ADMIN_NAME": "Bujumbura", "FIPS_CNTRY": "BY", "CNTRY_NAME": "Burundi", "STATUS": "National and provincial capital", "POP": 0, "POP_RANK": 0, "POP_CLASS": " ", "PORT_ID": 0, "LABEL_FLAG": 1, "POP_SOURCE": " " }, "geometry": { "type": "Point", "coordinates": [ 29.356002320257399, -3.37200299636732 ] } },
{ "type": "Feature", "properties": { "FID": 2420, "OBJECTID": 1920, "CITY_NAME": "Kigali", "GMI_ADMIN": "RWA-KIG", "ADMIN_NAME": "Kigali", "FIPS_CNTRY": "RW", "CNTRY_NAME": "Rwanda", "STATUS": "National and provincial capital", "POP": 859332, "POP_RANK": 3, "POP_CLASS": "500,000 to 999,999", "PORT_ID": 0, "LABEL_FLAG": 1, "POP_SOURCE": "UN_Data_2010_2020" }, "geometry": { "type": "Point", "coordinates": [ 30.059001395496001, -1.95000307251088 ] } },
{ "type": "Feature", "properties": { "FID": 2438, "OBJECTID": 1938, "CITY_NAME": "Dar es Salaam", "GMI_ADMIN": "TZA-DES", "ADMIN_NAME": "Dar es Salaam", "FIPS_CNTRY": "TZ", "CNTRY_NAME": "Tanzania", "STATUS": "National and provincial capital", "POP": 4364541, "POP_RANK": 2, "POP_CLASS": "1,000,000 to 4,999,999", "PORT_ID": 47010, "LABEL_FLAG": 1, "POP_SOURCE": "UN_Data_2010_2020" }, "geometry": { "type": "Point", "coordinates": [ 39.253347298189802, -6.8173560640002 ] } },
{ "type": "Feature", "properties": { "FID": 2446, "OBJECTID": 1946, "CITY_NAME": "Nairobi", "GMI_ADMIN": "KEN-NAR", "ADMIN_NAME": "Nairobi Area", "FIPS_CNTRY": "KE", "CNTRY_NAME": "Kenya", "STATUS": "National and provincial capital", "POP": 4397073, "POP_RANK": 2, "POP_CLASS": "1,000,000 to 4,999,999", "PORT_ID": 0, "LABEL_FLAG": 0, "POP_SOURCE": "UN_Data_2010_2020" }, "geometry": { "type": "Point", "coordinates": [ 36.803997348645296, -1.26999894459972 ] } },
{ "type": "Feature", "properties": { "FID": 2451, "OBJECTID": 1951, "CITY_NAME": "Lilongwe", "GMI_ADMIN": "MWI-CNT", "ADMIN_NAME": "Central", "FIPS_CNTRY": "MI", "CNTRY_NAME": "Malawi", "STATUS": "National and provincial capital", "POP": 989318, "POP_RANK": 3, "POP_CLASS": "500,000 to 999,999", "PORT_ID": 0, "LABEL_FLAG": 0, "POP_SOURCE": "UN_Data_2010_2020" }, "geometry": { "type": "Point", "coordinates": [ 33.774003300725703, -13.9830030387956 ] } },
{ "type": "Feature", "properties": { "FID": 2457, "OBJECTID": 1957, "CITY_NAME": "Maputo", "GMI_ADMIN": "MOZ-MAP", "ADMIN_NAME": "Maputo", "FIPS_CNTRY": "MZ", "CNTRY_NAME": "Mozambique", "STATUS": "National and provincial capital", "POP": 1507000, "POP_RANK": 2, "POP_CLASS": "1,000,000 to 4,999,999", "PORT_ID": 46870, "LABEL_FLAG": 1, "POP_SOURCE": "UN_Habitat_2020" }, "geometry": { "type": "Point", "coordinates": [ 32.573997388717501, -25.962003039392599 ] } },
{ "type": "Feature", "properties": { "FID": 2458, "OBJECTID": 1958, "CITY_NAME": "Mbabane", "GMI_ADMIN": "SWZ-HHH", "ADMIN_NAME": "Hhohho", "FIPS_CNTRY": "WZ", "CNTRY_NAME": "Eswatini", "STATUS": "National capital", "POP": 0, "POP_RANK": 0, "POP_CLASS": " ", "PORT_ID": 0, "LABEL_FLAG": 0, "POP_SOURCE": " " }, "geometry": { "type": "Point", "coordinates": [ 31.1913003303371, -26.303381927391499 ] } },
{ "type": "Feature", "properties": { "FID": 2466, "OBJECTID": 1966, "CITY_NAME": "Gaborone", "GMI_ADMIN": "BWA-SEA", "ADMIN_NAME": "South-East", "FIPS_CNTRY": "BC", "CNTRY_NAME": "Botswana", "STATUS": "National capital", "POP": 231592, "POP_RANK": 5, "POP_CLASS": "100,000 to 249,999", "PORT_ID": 0, "LABEL_FLAG": 0, "POP_SOURCE": "UN_Data_2010_2020" }, "geometry": { "type": "Point", "coordinates": [ 25.950798401533099, -24.639929926604299 ] } },
{ "type": "Feature", "properties": { "FID": 2477, "OBJECTID": 1977, "CITY_NAME": "Maseru", "GMI_ADMIN": "LSO-MAS", "ADMIN_NAME": "Maseru", "FIPS_CNTRY": "LT", "CNTRY_NAME": "Lesotho", "STATUS": "National and provincial capital", "POP": 330760, "POP_RANK": 4, "POP_CLASS": "250,000 to 499,999", "PORT_ID": 0, "LABEL_FLAG": 1, "POP_SOURCE": "UN_Data_2010_2020" }, "geometry": { "type": "Point", "coordinates": [ 27.492003320802699, -29.307996077489499 ] } },
{ "type": "Feature", "properties": { "FID": 2482, "OBJECTID": 1982, "CITY_NAME": "Pretoria", "GMI_ADMIN": "ZAF-GAT", "ADMIN_NAME": "Gauteng", "FIPS_CNTRY": "SF", "CNTRY_NAME": "South Africa", "STATUS": "National capital", "POP": 1753000, "POP_RANK": 2, "POP_CLASS": "1,000,000 to 4,999,999", "PORT_ID": 0, "LABEL_FLAG": 0, "POP_SOURCE": "UN_Habitat_2020" }, "geometry": { "type": "Point", "coordinates": [ 28.217997343368602, -25.7309999316617 ] } },
{ "type": "Feature", "properties": { "FID": 2490, "OBJECTID": 1990, "CITY_NAME": "Mamoutzou", "GMI_ADMIN": "MYT", "ADMIN_NAME": "Mayotte", "FIPS_CNTRY": "MF", "CNTRY_NAME": "Mayotte", "STATUS": "National and provincial capital", "POP": 0, "POP_RANK": 0, "POP_CLASS": " ", "PORT_ID": 0, "LABEL_FLAG": 0, "POP_SOURCE": " " }, "geometry": { "type": "Point", "coordinates": [ 45.283302426682397, -12.783302940589399 ] } },
{ "type": "Feature", "properties": { "FID": 2491, "OBJECTID": 1991, "CITY_NAME": "Saint-Denis", "GMI_ADMIN": "REU", "ADMIN_NAME": "Reunion", "FIPS_CNTRY": "RE", "CNTRY_NAME": "Reunion", "STATUS": "National and provincial capital", "POP": 146985, "POP_RANK": 5, "POP_CLASS": "100,000 to 249,999", "PORT_ID": 47680, "LABEL_FLAG": 0, "POP_SOURCE": "UN_Data_2010_2020" }, "geometry": { "type": "Point", "coordinates": [ 55.449999364527201, -20.8666979623945 ] } },
{ "type": "Feature", "properties": { "FID": 2492, "OBJECTID": 1992, "CITY_NAME": "Victoria", "GMI_ADMIN": "SYC", "ADMIN_NAME": "Seychelles", "FIPS_CNTRY": "SE", "CNTRY_NAME": "Seychelles", "STATUS": "National capital", "POP": 26450, "POP_RANK": 7, "POP_CLASS": "Less than 50,000", "PORT_ID": 47220, "LABEL_FLAG": 0, "POP_SOURCE": "UN_Data_2010_2020" }, "geometry": { "type": "Point", "coordinates": [ 55.445004405762297, -4.61699994366411 ] } },
{ "type": "Feature", "properties": { "FID": 2496, "OBJECTID": 1996, "CITY_NAME": "Antananarivo", "GMI_ADMIN": "MDG-ANN", "ADMIN_NAME": "Antananarivo", "FIPS_CNTRY": "MA", "CNTRY_NAME": "Madagascar", "STATUS": "National and provincial capital", "POP": 1275207, "POP_RANK": 2, "POP_CLASS": "1,000,000 to 4,999,999", "PORT_ID": 0, "LABEL_FLAG": 1, "POP_SOURCE": "UN_Data_2010_2020" }, "geometry": { "type": "Point", "coordinates": [ 47.528001382814601, -18.908000939046499 ] } },
{ "type": "Feature", "properties": { "FID": 2497, "OBJECTID": 1997, "CITY_NAME": "Port Louis", "GMI_ADMIN": "MUS", "ADMIN_NAME": "Mauritius", "FIPS_CNTRY": "MP", "CNTRY_NAME": "Mauritius", "STATUS": "National capital", "POP": 146737, "POP_RANK": 5, "POP_CLASS": "100,000 to 249,999", "PORT_ID": 47720, "LABEL_FLAG": 0, "POP_SOURCE": "UN_Data_2010_2020" }, "geometry": { "type": "Point", "coordinates": [ 57.495996299306299, -20.165004056774901 ] } },
{ "type": "Feature", "properties": { "FID": 2499, "OBJECTID": 1999, "CITY_NAME": "Juba", "GMI_ADMIN": " ", "ADMIN_NAME": "Central Equatoria", "FIPS_CNTRY": "OD", "CNTRY_NAME": "South Sudan", "STATUS": "National and provincial capital", "POP": 0, "POP_RANK": 0, "POP_CLASS": " ", "PORT_ID": 0, "LABEL_FLAG": 0, "POP_SOURCE": " " }, "geometry": { "type": "Point", "coordinates": [ 31.597118555171299, 4.84406077135149 ] } }
]
}
